{
  "6": {
    "stop_id": "6",
    "stop_name": "Fermata 10 - RUBIANA",
    "stop_lat": 45.07545,
    "stop_lon": 7.63915,
    "stop_code": "10"
  },
  "7": {
    "stop_id": "7",
    "stop_name": "Fermata 100 - TOSCANA", 
    "stop_lat": 45.09583,
    "stop_lon": 7.65728,
    "stop_code": "100"
  },
  "8": {
    "stop_id": "8",
    "stop_name": "Fermata 1000 - CIMABUE",
    "stop_lat": 45.03807,
    "stop_lon": 7.61905,
    "stop_code": "1000"
  },
  "8324": {
    "stop_id": "8324",
    "stop_name": "Fermata 10001 - FIOCHETTO",
    "stop_lat": 45.07641,
    "stop_lon": 7.68937,
    "stop_code": "10001"
  },
  "9": {
    "stop_id": "9",
    "stop_name": "Fermata 1001 - INDUNO",
    "stop_lat": 45.03665,
    "stop_lon": 7.61937,
    "stop_code": "1001"
  },
  "10": {
    "stop_id": "10",
    "stop_name": "Fermata 1002 - INDUNO",
    "stop_lat": 45.0369,
    "stop_lon": 7.61973,
    "stop_code": "1002"
  },
  "11": {
    "stop_id": "11",
    "stop_name": "Fermata 1003 - CATTANEO OVEST",
    "stop_lat": 45.03575,
    "stop_lon": 7.6234,
    "stop_code": "1003"
  },
  "12": {
    "stop_id": "12",
    "stop_name": "Fermata 1004 - CATTANEO OVEST",
    "stop_lat": 45.03609,
    "stop_lon": 7.62343,
    "stop_code": "1004"
  },
  "13": {
    "stop_id": "13",
    "stop_name": "Fermata 1005 - CATTANEO EST",
    "stop_lat": 45.03512,
    "stop_lon": 7.62594,
    "stop_code": "1005"
  },
  "14": {
    "stop_id": "14",
    "stop_name": "Fermata 1006 - CATTANEO EST",
    "stop_lat": 45.03538,
    "stop_lon": 7.62603,
    "stop_code": "1006"
  },
  "15": {
    "stop_id": "15",
    "stop_name": "Fermata 1007 - POMA",
    "stop_lat": 45.03372,
    "stop_lon": 7.62999,
    "stop_code": "1007"
  },
  "16": {
    "stop_id": "16",
    "stop_name": "Fermata 1008 - POMA",
    "stop_lat": 45.034,
    "stop_lon": 7.63013,
    "stop_code": "1008"
  },
  "17": {
    "stop_id": "17",
    "stop_name": "Fermata 1009 - SIRACUSA",
    "stop_lat": 45.03266,
    "stop_lon": 7.63317,
    "stop_code": "1009"
  },
  "18": {
    "stop_id": "18",
    "stop_name": "Fermata 101 - VALDELLATORRE",
    "stop_lat": 45.09477,
    "stop_lon": 7.65646,
    "stop_code": "101"
  },
  "19": {
    "stop_id": "19",
    "stop_name": "Fermata 1010 - SIRACUSA",
    "stop_lat": 45.03266,
    "stop_lon": 7.63413,
    "stop_code": "1010"
  },
  "8768": {
    "stop_id": "8768",
    "stop_name": "Fermata 10100 - STAZIONE STURA",
    "stop_lat": 45.12005,
    "stop_lon": 7.71082,
    "stop_code": "10100"
  },
  "20": {
    "stop_id": "20",
    "stop_name": "Fermata 1011 - TRAIANO",
    "stop_lat": 45.02662,
    "stop_lon": 7.63701,
    "stop_code": "1011"
  },
  "21": {
    "stop_id": "21",
    "stop_name": "Fermata 1012 - CAIO MARIO NORD",
    "stop_lat": 45.02408,
    "stop_lon": 7.6352,
    "stop_code": "1012"
  },
  "22": {
    "stop_id": "22",
    "stop_name": "Fermata 1013 - CAIO MARIO NORD",
    "stop_lat": 45.02517,
    "stop_lon": 7.63639,
    "stop_code": "1013"
  },
  "23": {
    "stop_id": "23",
    "stop_name": "Fermata 1014 - CAIO MARIO EST",
    "stop_lat": 45.02213,
    "stop_lon": 7.63657,
    "stop_code": "1014"
  },
  "24": {
    "stop_id": "24",
    "stop_name": "Fermata 1015 - CAIO MARIO EST",
    "stop_lat": 45.02253,
    "stop_lon": 7.63646,
    "stop_code": "1015"
  },
  "25": {
    "stop_id": "25",
    "stop_name": "Fermata 1016 - CROCE",
    "stop_lat": 45.01802,
    "stop_lon": 7.64476,
    "stop_code": "1016"
  },
  "26": {
    "stop_id": "26",
    "stop_name": "Fermata 1017 - CROCE",
    "stop_lat": 45.01841,
    "stop_lon": 7.64434,
    "stop_code": "1017"
  },
  "27": {
    "stop_id": "27",
    "stop_name": "Fermata 1018 - ARTOM",
    "stop_lat": 45.01745,
    "stop_lon": 7.64742,
    "stop_code": "1018"
  },
  "28": {
    "stop_id": "28",
    "stop_name": "Fermata 1019 - ARTOM",
    "stop_lat": 45.01778,
    "stop_lon": 7.64735,
    "stop_code": "1019"
  },
  "29": {
    "stop_id": "29",
    "stop_name": "Fermata 102 - GROSSETO",
    "stop_lat": 45.10589,
    "stop_lon": 7.64538,
    "stop_code": "102"
  },
  "30": {
    "stop_id": "30",
    "stop_name": "Fermata 1020 - SETTE COMUNI",
    "stop_lat": 45.01729,
    "stop_lon": 7.65178,
    "stop_code": "1020"
  },
  "31": {
    "stop_id": "31",
    "stop_name": "Fermata 1021 - SETTE COMUNI",
    "stop_lat": 45.01757,
    "stop_lon": 7.65333,
    "stop_code": "1021"
  },
  "32": {
    "stop_id": "32",
    "stop_name": "Fermata 1022 - PLINIO",
    "stop_lat": 45.01725,
    "stop_lon": 7.65577,
    "stop_code": "1022"
  },
  "33": {
    "stop_id": "33",
    "stop_name": "Fermata 1023 - BENGASI OVEST",
    "stop_lat": 45.01757,
    "stop_lon": 7.66112,
    "stop_code": "1023"
  },
  "34": {
    "stop_id": "34",
    "stop_name": "Fermata 1024 - BENGASI SUD",
    "stop_lat": 45.01568,
    "stop_lon": 7.66234,
    "stop_code": "1024"
  },
  "35": {
    "stop_id": "35",
    "stop_name": "Fermata 1025 - TARTINI",
    "stop_lat": 45.09982,
    "stop_lon": 7.70801,
    "stop_code": "1025"
  },
  "36": {
    "stop_id": "36",
    "stop_name": "Fermata 1026 - BENGASI SUD",
    "stop_lat": 45.01525,
    "stop_lon": 7.66284,
    "stop_code": "1026"
  },
  "37": {
    "stop_id": "37",
    "stop_name": "Fermata 1027 - GORIZIA",
    "stop_lat": 45.01336,
    "stop_lon": 7.66419,
    "stop_code": "1027"
  },
  "38": {
    "stop_id": "38",
    "stop_name": "Fermata 1028 - GORIZIA",
    "stop_lat": 45.01422,
    "stop_lon": 7.66372,
    "stop_code": "1028"
  },
  "39": {
    "stop_id": "39",
    "stop_name": "Fermata 1029 - SAN MATTEO",
    "stop_lat": 45.0117,
    "stop_lon": 7.66558,
    "stop_code": "1029"
  },
  "40": {
    "stop_id": "40",
    "stop_name": "Fermata 103 - PIANEZZA",
    "stop_lat": 45.092,
    "stop_lon": 7.65458,
    "stop_code": "103"
  },
  "41": {
    "stop_id": "41",
    "stop_name": "Fermata 1030 - SAN MATTEO",
    "stop_lat": 45.01188,
    "stop_lon": 7.66562,
    "stop_code": "1030"
  },
  "42": {
    "stop_id": "42",
    "stop_name": "Fermata 1031 - GOBETTI",
    "stop_lat": 45.00996,
    "stop_lon": 7.66691,
    "stop_code": "1031"
  },
  "43": {
    "stop_id": "43",
    "stop_name": "Fermata 1032 - GOBETTI",
    "stop_lat": 45.01021,
    "stop_lon": 7.66688,
    "stop_code": "1032"
  },
  "44": {
    "stop_id": "44",
    "stop_name": "Fermata 1033 - VICO",
    "stop_lat": 45.00892,
    "stop_lon": 7.66775,
    "stop_code": "1033"
  },
  "45": {
    "stop_id": "45",
    "stop_name": "Fermata 1034 - VICO",
    "stop_lat": 45.00909,
    "stop_lon": 7.66779,
    "stop_code": "1034"
  },
  "46": {
    "stop_id": "46",
    "stop_name": "Fermata 1035 - PESCHIERA",
    "stop_lat": 45.00671,
    "stop_lon": 7.66993,
    "stop_code": "1035"
  },
  "47": {
    "stop_id": "47",
    "stop_name": "Fermata 1036 - PESCHIERA",
    "stop_lat": 45.00706,
    "stop_lon": 7.6698,
    "stop_code": "1036"
  },
  "48": {
    "stop_id": "48",
    "stop_name": "Fermata 1037 - TRIESTE OVEST",
    "stop_lat": 45.00514,
    "stop_lon": 7.67229,
    "stop_code": "1037"
  },
  "49": {
    "stop_id": "49",
    "stop_name": "Fermata 1038 - TRIESTE OVEST",
    "stop_lat": 45.00543,
    "stop_lon": 7.67232,
    "stop_code": "1038"
  },
  "51": {
    "stop_id": "51",
    "stop_name": "Fermata 104 - PIANEZZA",
    "stop_lat": 45.09184,
    "stop_lon": 7.65459,
    "stop_code": "104"
  },
  "52": {
    "stop_id": "52",
    "stop_name": "Fermata 1040 - PONTE CAVALIERI TEMPLARI",
    "stop_lat": 45.00216,
    "stop_lon": 7.67722,
    "stop_code": "1040"
  },
  "54": {
    "stop_id": "54",
    "stop_name": "Fermata 1042 - CADUTI PER LA LIBERTÀ",
    "stop_lat": 44.99962,
    "stop_lon": 7.68005,
    "stop_code": "1042"
  },
  "55": {
    "stop_id": "55",
    "stop_name": "Fermata 1043 - CATTANEO",
    "stop_lat": 44.99812,
    "stop_lon": 7.68406,
    "stop_code": "1043"
  },
  "56": {
    "stop_id": "56",
    "stop_name": "Fermata 1044 - CATTANEO",
    "stop_lat": 44.99833,
    "stop_lon": 7.68423,
    "stop_code": "1044"
  },
  "57": {
    "stop_id": "57",
    "stop_name": "Fermata 1045 - DELLACHÀ",
    "stop_lat": 44.99982,
    "stop_lon": 7.68817,
    "stop_code": "1045"
  },
  "58": {
    "stop_id": "58",
    "stop_name": "Fermata 1046 - DELLACHÀ",
    "stop_lat": 45.00003,
    "stop_lon": 7.68835,
    "stop_code": "1046"
  },
  "59": {
    "stop_id": "59",
    "stop_name": "Fermata 1047 - FAILLA",
    "stop_lat": 45.00038,
    "stop_lon": 7.69403,
    "stop_code": "1047"
  },
  "61": {
    "stop_id": "61",
    "stop_name": "Fermata 1049 - FAILLA",
    "stop_lat": 45.00055,
    "stop_lon": 7.69327,
    "stop_code": "1049"
  },
  "62": {
    "stop_id": "62",
    "stop_name": "Fermata 105 - REGINA MARGHERITA",
    "stop_lat": 45.08819,
    "stop_lon": 7.65204,
    "stop_code": "105"
  },
  "63": {
    "stop_id": "63",
    "stop_name": "Fermata 1050 - BUOZZI",
    "stop_lat": 44.9978,
    "stop_lon": 7.70245,
    "stop_code": "1050"
  },
  "64": {
    "stop_id": "64",
    "stop_name": "Fermata 1051 - BUOZZI",
    "stop_lat": 44.99801,
    "stop_lon": 7.70228,
    "stop_code": "1051"
  },
  "65": {
    "stop_id": "65",
    "stop_name": "Fermata 1052 - NASI",
    "stop_lat": 44.99633,
    "stop_lon": 7.70574,
    "stop_code": "1052"
  },
  "66": {
    "stop_id": "66",
    "stop_name": "Fermata 1053 - NASI",
    "stop_lat": 44.99703,
    "stop_lon": 7.70453,
    "stop_code": "1053"
  },
  "67": {
    "stop_id": "67",
    "stop_name": "Fermata 1054 - SETTEMBRINI",
    "stop_lat": 44.99541,
    "stop_lon": 7.70991,
    "stop_code": "1054"
  },
  "68": {
    "stop_id": "68",
    "stop_name": "Fermata 1055 - PONTE PO",
    "stop_lat": 45.00059,
    "stop_lon": 7.67639,
    "stop_code": "1055"
  },
  "69": {
    "stop_id": "69",
    "stop_name": "Fermata 1056 - STAZIONE MONCALIERI",
    "stop_lat": 44.99884,
    "stop_lon": 7.67863,
    "stop_code": "1056"
  },
  "70": {
    "stop_id": "70",
    "stop_name": "Fermata 1057 - TORINO",
    "stop_lat": 44.9952,
    "stop_lon": 7.64765,
    "stop_code": "1057"
  },
  "71": {
    "stop_id": "71",
    "stop_name": "Fermata 1058 - LOMBARDIA",
    "stop_lat": 45.09924,
    "stop_lon": 7.64879,
    "stop_code": "1058"
  },
  "72": {
    "stop_id": "72",
    "stop_name": "Fermata 1059 - LOMBARDIA",
    "stop_lat": 45.09908,
    "stop_lon": 7.65036,
    "stop_code": "1059"
  },
  "73": {
    "stop_id": "73",
    "stop_name": "Fermata 106 - REGINA MARGHERITA",
    "stop_lat": 45.08807,
    "stop_lon": 7.65206,
    "stop_code": "106"
  },
  "74": {
    "stop_id": "74",
    "stop_name": "Fermata 1060 - BORSI",
    "stop_lat": 45.09802,
    "stop_lon": 7.65329,
    "stop_code": "1060"
  },
  "75": {
    "stop_id": "75",
    "stop_name": "Fermata 1061 - BORSI",
    "stop_lat": 45.0981,
    "stop_lon": 7.65366,
    "stop_code": "1061"
  },
  "76": {
    "stop_id": "76",
    "stop_name": "Fermata 1063 - XXV APRILE",
    "stop_lat": 45.00124,
    "stop_lon": 7.6409,
    "stop_code": "1063"
  },
  "77": {
    "stop_id": "77",
    "stop_name": "Fermata 1064 - XXV APRILE",
    "stop_lat": 45.00115,
    "stop_lon": 7.64016,
    "stop_code": "1064"
  },
  "78": {
    "stop_id": "78",
    "stop_name": "Fermata 1065 - PALLAVICINO",
    "stop_lat": 45.00176,
    "stop_lon": 7.63393,
    "stop_code": "1065"
  },
  "79": {
    "stop_id": "79",
    "stop_name": "Fermata 1066 - ISTITUTO MAXWELL",
    "stop_lat": 45.0015,
    "stop_lon": 7.63586,
    "stop_code": "1066"
  },
  "80": {
    "stop_id": "80",
    "stop_name": "Fermata 1067 - PRACAVALLO",
    "stop_lat": 45.00496,
    "stop_lon": 7.62956,
    "stop_code": "1067"
  },
  "81": {
    "stop_id": "81",
    "stop_name": "Fermata 1068 - PRACAVALLO",
    "stop_lat": 45.00453,
    "stop_lon": 7.63005,
    "stop_code": "1068"
  },
  "82": {
    "stop_id": "82",
    "stop_name": "Fermata 1069 - CESANA",
    "stop_lat": 45.00773,
    "stop_lon": 7.62296,
    "stop_code": "1069"
  },
  "83": {
    "stop_id": "83",
    "stop_name": "Fermata 107 - APPIO CLAUDIO",
    "stop_lat": 45.08538,
    "stop_lon": 7.65008,
    "stop_code": "107"
  },
  "84": {
    "stop_id": "84",
    "stop_name": "Fermata 1070 - CESANA",
    "stop_lat": 45.00754,
    "stop_lon": 7.6228,
    "stop_code": "1070"
  },
  "85": {
    "stop_id": "85",
    "stop_name": "Fermata 1071 - POLIAMBULATORI",
    "stop_lat": 45.00047,
    "stop_lon": 7.63207,
    "stop_code": "1071"
  },
  "86": {
    "stop_id": "86",
    "stop_name": "Fermata 1072 - PRINCIPI D'ACAJA",
    "stop_lat": 45.07631,
    "stop_lon": 7.66419,
    "stop_code": "1072"
  },
  "87": {
    "stop_id": "87",
    "stop_name": "Fermata 1073 - CASTELLO DI MIRAFIORI",
    "stop_lat": 45.0136,
    "stop_lon": 7.62533,
    "stop_code": "1073"
  },
  "88": {
    "stop_id": "88",
    "stop_name": "Fermata 1074 - CASTELLO DI MIRAFIORI",
    "stop_lat": 45.01356,
    "stop_lon": 7.62462,
    "stop_code": "1074"
  },
  "89": {
    "stop_id": "89",
    "stop_name": "Fermata 1075 - FARINELLI",
    "stop_lat": 45.01651,
    "stop_lon": 7.62863,
    "stop_code": "1075"
  },
  "90": {
    "stop_id": "90",
    "stop_name": "Fermata 1076 - PLAVA",
    "stop_lat": 45.01587,
    "stop_lon": 7.62718,
    "stop_code": "1076"
  },
  "91": {
    "stop_id": "91",
    "stop_name": "Fermata 1077 - BISCARETTI",
    "stop_lat": 45.01997,
    "stop_lon": 7.63253,
    "stop_code": "1077"
  },
  "92": {
    "stop_id": "92",
    "stop_name": "Fermata 1078 - BISCARETTI",
    "stop_lat": 45.01909,
    "stop_lon": 7.63079,
    "stop_code": "1078"
  },
  "93": {
    "stop_id": "93",
    "stop_name": "Fermata 1079 - VIGLIANI",
    "stop_lat": 45.02186,
    "stop_lon": 7.63454,
    "stop_code": "1079"
  },
  "94": {
    "stop_id": "94",
    "stop_name": "Fermata 10793 - SAN MAURO (SAMBUY)",
    "stop_lat": 45.11522,
    "stop_lon": 7.78209,
    "stop_code": "10793"
  },
  "95": {
    "stop_id": "95",
    "stop_name": "Fermata 10796 - CASTIGLIONE (MOLINO)",
    "stop_lat": 45.1172,
    "stop_lon": 7.79447,
    "stop_code": "10796"
  },
  "96": {
    "stop_id": "96",
    "stop_name": "Fermata 10799 - CASTIGLIONE (PEDAGGIO)",
    "stop_lat": 45.1173,
    "stop_lon": 7.80194,
    "stop_code": "10799"
  },
  "97": {
    "stop_id": "97",
    "stop_name": "Fermata 108 - APPIO CLAUDIO",
    "stop_lat": 45.08563,
    "stop_lon": 7.65046,
    "stop_code": "108"
  },
  "98": {
    "stop_id": "98",
    "stop_name": "Fermata 1080 - SETTEMBRINI",
    "stop_lat": 45.02269,
    "stop_lon": 7.63406,
    "stop_code": "1080"
  },
  "99": {
    "stop_id": "99",
    "stop_name": "Fermata 10802 - CASTIGLIONE (FORNACE)",
    "stop_lat": 45.11915,
    "stop_lon": 7.80887,
    "stop_code": "10802"
  },
  "100": {
    "stop_id": "100",
    "stop_name": "Fermata 10805 - CASTIGLIONE (REZZA)",
    "stop_lat": 45.12159,
    "stop_lon": 7.81446,
    "stop_code": "10805"
  },
  "101": {
    "stop_id": "101",
    "stop_name": "Fermata 10808 - CASTIGLIONE (SANT' EUFEMIA)",
    "stop_lat": 45.12485,
    "stop_lon": 7.82021,
    "stop_code": "10808"
  },
  "102": {
    "stop_id": "102",
    "stop_name": "Fermata 1081 - PAVESE",
    "stop_lat": 45.01823,
    "stop_lon": 7.63053,
    "stop_code": "1081"
  },
  "103": {
    "stop_id": "103",
    "stop_name": "Fermata 10811 - GASSINO (CIRCONVALLAZIONE / DIAZ)",
    "stop_lat": 45.12766,
    "stop_lon": 7.82226,
    "stop_code": "10811"
  },
  "104": {
    "stop_id": "104",
    "stop_name": "Fermata 10814 - GASSINO (CENTRO)",
    "stop_lat": 45.13049,
    "stop_lon": 7.82528,
    "stop_code": "10814"
  },
  "105": {
    "stop_id": "105",
    "stop_name": "Fermata 1082 - PRINCIPI D'ACAJA",
    "stop_lat": 45.07643,
    "stop_lon": 7.66405,
    "stop_code": "1082"
  },
  "106": {
    "stop_id": "106",
    "stop_name": "Fermata 1083 - CAIO MARIO CAP",
    "stop_lat": 45.02427,
    "stop_lon": 7.63623,
    "stop_code": "1083"
  },
  "107": {
    "stop_id": "107",
    "stop_name": "Fermata 1084 - STUPINIGI",
    "stop_lat": 44.99824,
    "stop_lon": 7.60752,
    "stop_code": "1084"
  },
  "108": {
    "stop_id": "108",
    "stop_name": "Fermata 1085 - TORINO",
    "stop_lat": 45.00127,
    "stop_lon": 7.61,
    "stop_code": "1085"
  },
  "8364": {
    "stop_id": "8364",
    "stop_name": "Fermata 1086 - SAN MATTEO",
    "stop_lat": 44.99681,
    "stop_lon": 7.64516,
    "stop_code": "1086"
  },
  "8365": {
    "stop_id": "8365",
    "stop_name": "Fermata 1087 - SAN MATTEO",
    "stop_lat": 44.99884,
    "stop_lon": 7.64761,
    "stop_code": "1087"
  },
  "109": {
    "stop_id": "109",
    "stop_name": "Fermata 1088 - DON MINZONI",
    "stop_lat": 45.00381,
    "stop_lon": 7.60543,
    "stop_code": "1088"
  },
  "110": {
    "stop_id": "110",
    "stop_name": "Fermata 1089 - GORIZIA",
    "stop_lat": 45.00578,
    "stop_lon": 7.60322,
    "stop_code": "1089"
  },
  "111": {
    "stop_id": "111",
    "stop_name": "Fermata 109 - LESSONA",
    "stop_lat": 45.08274,
    "stop_lon": 7.64836,
    "stop_code": "109"
  },
  "112": {
    "stop_id": "112",
    "stop_name": "Fermata 1090 - MARTIRI DELLA LIBERTÀ",
    "stop_lat": 45.00572,
    "stop_lon": 7.60423,
    "stop_code": "1090"
  },
  "8366": {
    "stop_id": "8366",
    "stop_name": "Fermata 1091 - VESPUCCI",
    "stop_lat": 45.00064,
    "stop_lon": 7.6492,
    "stop_code": "1091"
  },
  "113": {
    "stop_id": "113",
    "stop_name": "Fermata 1092 - RONDÒ BERNARDO",
    "stop_lat": 45.0084,
    "stop_lon": 7.60622,
    "stop_code": "1092"
  },
  "114": {
    "stop_id": "114",
    "stop_name": "Fermata 1093 - LARGO DELLE ALPI",
    "stop_lat": 45.00093,
    "stop_lon": 7.63237,
    "stop_code": "1093"
  },
  "115": {
    "stop_id": "115",
    "stop_name": "Fermata 1094 - GORIZIA EST",
    "stop_lat": 45.00887,
    "stop_lon": 7.60697,
    "stop_code": "1094"
  },
  "116": {
    "stop_id": "116",
    "stop_name": "Fermata 1095 - VIGILI DEL FUOCO",
    "stop_lat": 45.08855,
    "stop_lon": 7.64885,
    "stop_code": "1095"
  },
  "117": {
    "stop_id": "117",
    "stop_name": "Fermata 1096 - RONDÒ BERNARDO N.16",
    "stop_lat": 45.00721,
    "stop_lon": 7.61092,
    "stop_code": "1096"
  },
  "118": {
    "stop_id": "118",
    "stop_name": "Fermata 1097 - STUPINIGI",
    "stop_lat": 45.00165,
    "stop_lon": 7.64016,
    "stop_code": "1097"
  },
  "119": {
    "stop_id": "119",
    "stop_name": "Fermata 1098 - TORINO",
    "stop_lat": 45.00585,
    "stop_lon": 7.61436,
    "stop_code": "1098"
  },
  "120": {
    "stop_id": "120",
    "stop_name": "Fermata 1099 - RONDÒ BERNARDO",
    "stop_lat": 45.00554,
    "stop_lon": 7.61592,
    "stop_code": "1099"
  },
  "121": {
    "stop_id": "121",
    "stop_name": "Fermata 110 - LESSONA",
    "stop_lat": 45.08343,
    "stop_lon": 7.64899,
    "stop_code": "110"
  },
  "122": {
    "stop_id": "122",
    "stop_name": "Fermata 1100 - SANGONE",
    "stop_lat": 45.00987,
    "stop_lon": 7.62118,
    "stop_code": "1100"
  },
  "123": {
    "stop_id": "123",
    "stop_name": "Fermata 1101 - SANGONE",
    "stop_lat": 45.01016,
    "stop_lon": 7.62086,
    "stop_code": "1101"
  },
  "124": {
    "stop_id": "124",
    "stop_name": "Fermata 1102 - CAIO MARIO",
    "stop_lat": 45.02419,
    "stop_lon": 7.63696,
    "stop_code": "1102"
  },
  "125": {
    "stop_id": "125",
    "stop_name": "Fermata 1103 - CAIO MARIO",
    "stop_lat": 45.02355,
    "stop_lon": 7.63619,
    "stop_code": "1103"
  },
  "126": {
    "stop_id": "126",
    "stop_name": "Fermata 1104 - BRAMANTE",
    "stop_lat": 45.04642,
    "stop_lon": 7.66186,
    "stop_code": "1104"
  },
  "127": {
    "stop_id": "127",
    "stop_name": "Fermata 1105 - LEPANTO",
    "stop_lat": 45.04701,
    "stop_lon": 7.66234,
    "stop_code": "1105"
  },
  "128": {
    "stop_id": "128",
    "stop_name": "Fermata 1106 - OSPEDALE MAURIZIANO",
    "stop_lat": 45.04958,
    "stop_lon": 7.66541,
    "stop_code": "1106"
  },
  "129": {
    "stop_id": "129",
    "stop_name": "Fermata 1107 - MARONCELLI",
    "stop_lat": 45.13847,
    "stop_lon": 7.77754,
    "stop_code": "1107"
  },
  "130": {
    "stop_id": "130",
    "stop_name": "Fermata 1108 - MAGELLANO",
    "stop_lat": 45.05154,
    "stop_lon": 7.66762,
    "stop_code": "1108"
  },
  "131": {
    "stop_id": "131",
    "stop_name": "Fermata 1109 - LEVI",
    "stop_lat": 45.14071,
    "stop_lon": 7.77894,
    "stop_code": "1109"
  },
  "133": {
    "stop_id": "133",
    "stop_name": "Fermata 1110 - VESPUCCI",
    "stop_lat": 45.05274,
    "stop_lon": 7.66894,
    "stop_code": "1110"
  },
  "134": {
    "stop_id": "134",
    "stop_name": "Fermata 1111 - PERVINCHE",
    "stop_lat": 45.10348,
    "stop_lon": 7.63609,
    "stop_code": "1111"
  },
  "135": {
    "stop_id": "135",
    "stop_name": "Fermata 1112 - SOMMEILLER",
    "stop_lat": 45.0557,
    "stop_lon": 7.67225,
    "stop_code": "1112"
  },
  "136": {
    "stop_id": "136",
    "stop_name": "Fermata 1113 - PERVINCHE NORD",
    "stop_lat": 45.10597,
    "stop_lon": 7.63586,
    "stop_code": "1113"
  },
  "137": {
    "stop_id": "137",
    "stop_name": "Fermata 1114 - PASTRENGO",
    "stop_lat": 45.05833,
    "stop_lon": 7.67432,
    "stop_code": "1114"
  },
  "138": {
    "stop_id": "138",
    "stop_name": "Fermata 1115 - PRIMULE NORD",
    "stop_lat": 45.106,
    "stop_lon": 7.62564,
    "stop_code": "1115"
  },
  "139": {
    "stop_id": "139",
    "stop_name": "Fermata 1116 - STAZIONE NICHELINO",
    "stop_lat": 44.991,
    "stop_lon": 7.64227,
    "stop_code": "1116"
  },
  "140": {
    "stop_id": "140",
    "stop_name": "Fermata 1117 - LAGRANGE",
    "stop_lat": 45.00177,
    "stop_lon": 7.64533,
    "stop_code": "1117"
  },
  "141": {
    "stop_id": "141",
    "stop_name": "Fermata 1118 - BOLZANO CAP",
    "stop_lat": 45.07335,
    "stop_lon": 7.66751,
    "stop_code": "1118"
  },
  "142": {
    "stop_id": "142",
    "stop_name": "Fermata 1119 - CAIO MARIO CAP",
    "stop_lat": 45.02446,
    "stop_lon": 7.63614,
    "stop_code": "1119"
  },
  "144": {
    "stop_id": "144",
    "stop_name": "Fermata 1120 - MARSIGLI CAP",
    "stop_lat": 45.06819,
    "stop_lon": 7.62757,
    "stop_code": "1120"
  },
  "145": {
    "stop_id": "145",
    "stop_name": "Fermata 1121 - RIETI",
    "stop_lat": 45.06505,
    "stop_lon": 7.60885,
    "stop_code": "1121"
  },
  "146": {
    "stop_id": "146",
    "stop_name": "Fermata 1122 - BRUNELLESCHI",
    "stop_lat": 45.06923,
    "stop_lon": 7.62456,
    "stop_code": "1122"
  },
  "147": {
    "stop_id": "147",
    "stop_name": "Fermata 1123 - CHAMBERY",
    "stop_lat": 45.06981,
    "stop_lon": 7.62319,
    "stop_code": "1123"
  },
  "148": {
    "stop_id": "148",
    "stop_name": "Fermata 1124 - LECCE",
    "stop_lat": 45.08467,
    "stop_lon": 7.65038,
    "stop_code": "1124"
  },
  "149": {
    "stop_id": "149",
    "stop_name": "Fermata 1125 - SACRARIO DEL MARTINETTO",
    "stop_lat": 45.08398,
    "stop_lon": 7.65333,
    "stop_code": "1125"
  },
  "150": {
    "stop_id": "150",
    "stop_name": "Fermata 1126 - SACRARIO DEL MARTINETTO",
    "stop_lat": 45.08421,
    "stop_lon": 7.65314,
    "stop_code": "1126"
  },
  "151": {
    "stop_id": "151",
    "stop_name": "Fermata 1127 - PERVINCHE",
    "stop_lat": 45.10338,
    "stop_lon": 7.63554,
    "stop_code": "1127"
  },
  "152": {
    "stop_id": "152",
    "stop_name": "Fermata 1128 - GIAMBONE",
    "stop_lat": 45.0308,
    "stop_lon": 7.65182,
    "stop_code": "1128"
  },
  "154": {
    "stop_id": "154",
    "stop_name": "Fermata 1130 - RE UMBERTO",
    "stop_lat": 45.05142,
    "stop_lon": 7.66249,
    "stop_code": "1130"
  },
  "155": {
    "stop_id": "155",
    "stop_name": "Fermata 11303 - RIVALTA (FIAT RIVALTA-CANC. 8)",
    "stop_lat": 44.99719,
    "stop_lon": 7.50704,
    "stop_code": "11303"
  },
  "156": {
    "stop_id": "156",
    "stop_name": "Fermata 11306 - RIVALTA (FIAT RIVALTA-CANC. 5)",
    "stop_lat": 44.99799,
    "stop_lon": 7.51045,
    "stop_code": "11306"
  },
  "157": {
    "stop_id": "157",
    "stop_name": "Fermata 1131 - OSPEDALE MAURIZIANO",
    "stop_lat": 45.05057,
    "stop_lon": 7.66509,
    "stop_code": "1131"
  },
  "158": {
    "stop_id": "158",
    "stop_name": "Fermata 1132 - OSPEDALE MAURIZIANO",
    "stop_lat": 45.05049,
    "stop_lon": 7.66474,
    "stop_code": "1132"
  },
  "159": {
    "stop_id": "159",
    "stop_name": "Fermata 1133 - ROCCABRUNA",
    "stop_lat": 45.04915,
    "stop_lon": 7.66723,
    "stop_code": "1133"
  },
  "160": {
    "stop_id": "160",
    "stop_name": "Fermata 1134 - ROCCABRUNA",
    "stop_lat": 45.04931,
    "stop_lon": 7.6671,
    "stop_code": "1134"
  },
  "161": {
    "stop_id": "161",
    "stop_name": "Fermata 1135 - NIZZA",
    "stop_lat": 45.04754,
    "stop_lon": 7.67232,
    "stop_code": "1135"
  },
  "162": {
    "stop_id": "162",
    "stop_name": "Fermata 1136 - NIZZA",
    "stop_lat": 45.04767,
    "stop_lon": 7.67238,
    "stop_code": "1136"
  },
  "163": {
    "stop_id": "163",
    "stop_name": "Fermata 1137 - MADAMA CRISTINA",
    "stop_lat": 45.04704,
    "stop_lon": 7.67484,
    "stop_code": "1137"
  },
  "164": {
    "stop_id": "164",
    "stop_name": "Fermata 1139 - GIURIA",
    "stop_lat": 45.04651,
    "stop_lon": 7.67774,
    "stop_code": "1139"
  },
  "166": {
    "stop_id": "166",
    "stop_name": "Fermata 1140 - GIURIA",
    "stop_lat": 45.04676,
    "stop_lon": 7.67693,
    "stop_code": "1140"
  },
  "167": {
    "stop_id": "167",
    "stop_name": "Fermata 1141 - ALTA DI MONGRENO N.16",
    "stop_lat": 45.06349,
    "stop_lon": 7.756,
    "stop_code": "1141"
  },
  "168": {
    "stop_id": "168",
    "stop_name": "Fermata 1142 - MORANDI",
    "stop_lat": 45.01504,
    "stop_lon": 7.63222,
    "stop_code": "1142"
  },
  "170": {
    "stop_id": "170",
    "stop_name": "Fermata 1144 - FABRIZI",
    "stop_lat": 45.0801,
    "stop_lon": 7.65638,
    "stop_code": "1144"
  },
  "171": {
    "stop_id": "171",
    "stop_name": "Fermata 1145 - OSPEDALE SAN LUIGI CAP",
    "stop_lat": 45.02841,
    "stop_lon": 7.55942,
    "stop_code": "1145"
  },
  "172": {
    "stop_id": "172",
    "stop_name": "Fermata 1146 - SECRETO",
    "stop_lat": 45.10369,
    "stop_lon": 7.65094,
    "stop_code": "1146"
  },
  "173": {
    "stop_id": "173",
    "stop_name": "Fermata 1147 - SANGONE",
    "stop_lat": 45.0731,
    "stop_lon": 7.54006,
    "stop_code": "1147"
  },
  "174": {
    "stop_id": "174",
    "stop_name": "Fermata 1148 - MONDOVI'",
    "stop_lat": 45.07801,
    "stop_lon": 7.54243,
    "stop_code": "1148"
  },
  "175": {
    "stop_id": "175",
    "stop_name": "Fermata 1149 - ARONA",
    "stop_lat": 45.08689,
    "stop_lon": 7.54942,
    "stop_code": "1149"
  },
  "177": {
    "stop_id": "177",
    "stop_name": "Fermata 1150 - CASTELLO DEL DROSSO",
    "stop_lat": 45.01936,
    "stop_lon": 7.59504,
    "stop_code": "1150"
  },
  "178": {
    "stop_id": "178",
    "stop_name": "Fermata 1151 - CASTELLO DEL DROSSO",
    "stop_lat": 45.01931,
    "stop_lon": 7.59623,
    "stop_code": "1151"
  },
  "179": {
    "stop_id": "179",
    "stop_name": "Fermata 1152 - ANSELMETTI",
    "stop_lat": 45.01782,
    "stop_lon": 7.6045,
    "stop_code": "1152"
  },
  "180": {
    "stop_id": "180",
    "stop_name": "Fermata 1153 - ANSELMETTI",
    "stop_lat": 45.01784,
    "stop_lon": 7.60615,
    "stop_code": "1153"
  },
  "181": {
    "stop_id": "181",
    "stop_name": "Fermata 1154 - DROSSO",
    "stop_lat": 45.0172,
    "stop_lon": 7.6102,
    "stop_code": "1154"
  },
  "182": {
    "stop_id": "182",
    "stop_name": "Fermata 1155 - DROSSO",
    "stop_lat": 45.01709,
    "stop_lon": 7.60995,
    "stop_code": "1155"
  },
  "183": {
    "stop_id": "183",
    "stop_name": "Fermata 1157 - ROVEDA",
    "stop_lat": 45.01901,
    "stop_lon": 7.61127,
    "stop_code": "1157"
  },
  "184": {
    "stop_id": "184",
    "stop_name": "Fermata 1158 - NEGARVILLE CAP",
    "stop_lat": 45.02045,
    "stop_lon": 7.61226,
    "stop_code": "1158"
  },
  "185": {
    "stop_id": "185",
    "stop_name": "Fermata 1159 - NEGARVILLE EST",
    "stop_lat": 45.02025,
    "stop_lon": 7.61532,
    "stop_code": "1159"
  },
  "186": {
    "stop_id": "186",
    "stop_name": "Fermata 116 - RIVOLI SUD",
    "stop_lat": 45.07497,
    "stop_lon": 7.64268,
    "stop_code": "116"
  },
  "187": {
    "stop_id": "187",
    "stop_name": "Fermata 1160 - JONA",
    "stop_lat": 45.02064,
    "stop_lon": 7.61487,
    "stop_code": "1160"
  },
  "188": {
    "stop_id": "188",
    "stop_name": "Fermata 1161 - FACCIOLI",
    "stop_lat": 45.01931,
    "stop_lon": 7.61832,
    "stop_code": "1161"
  },
  "189": {
    "stop_id": "189",
    "stop_name": "Fermata 1162 - FACCIOLI",
    "stop_lat": 45.01909,
    "stop_lon": 7.61831,
    "stop_code": "1162"
  },
  "190": {
    "stop_id": "190",
    "stop_name": "Fermata 1163 - VALLARSA",
    "stop_lat": 45.01705,
    "stop_lon": 7.62443,
    "stop_code": "1163"
  },
  "191": {
    "stop_id": "191",
    "stop_name": "Fermata 1164 - VALLARSA",
    "stop_lat": 45.01766,
    "stop_lon": 7.623,
    "stop_code": "1164"
  },
  "192": {
    "stop_id": "192",
    "stop_name": "Fermata 1165 - UNIONE SOVIETICA",
    "stop_lat": 45.01584,
    "stop_lon": 7.62859,
    "stop_code": "1165"
  },
  "193": {
    "stop_id": "193",
    "stop_name": "Fermata 1166 - OSPEDALE VALLETTA",
    "stop_lat": 45.01564,
    "stop_lon": 7.63044,
    "stop_code": "1166"
  },
  "194": {
    "stop_id": "194",
    "stop_name": "Fermata 1167 - TORINO",
    "stop_lat": 45.065,
    "stop_lon": 7.57879,
    "stop_code": "1167"
  },
  "195": {
    "stop_id": "195",
    "stop_name": "Fermata 1168 - TORINO",
    "stop_lat": 45.06485,
    "stop_lon": 7.57863,
    "stop_code": "1168"
  },
  "196": {
    "stop_id": "196",
    "stop_name": "Fermata 1169 - PORTOFINO",
    "stop_lat": 45.01903,
    "stop_lon": 7.63359,
    "stop_code": "1169"
  },
  "197": {
    "stop_id": "197",
    "stop_name": "Fermata 117 - RIVOLI SUD",
    "stop_lat": 45.07489,
    "stop_lon": 7.64312,
    "stop_code": "117"
  },
  "198": {
    "stop_id": "198",
    "stop_name": "Fermata 1170 - PORTOFINO",
    "stop_lat": 45.01923,
    "stop_lon": 7.63375,
    "stop_code": "1170"
  },
  "199": {
    "stop_id": "199",
    "stop_name": "Fermata 1171 - ISLER",
    "stop_lat": 45.01801,
    "stop_lon": 7.63766,
    "stop_code": "1171"
  },
  "200": {
    "stop_id": "200",
    "stop_name": "Fermata 1172 - ISLER",
    "stop_lat": 45.01819,
    "stop_lon": 7.63783,
    "stop_code": "1172"
  },
  "201": {
    "stop_id": "201",
    "stop_name": "Fermata 1173 - VERGA",
    "stop_lat": 45.01112,
    "stop_lon": 7.63615,
    "stop_code": "1173"
  },
  "202": {
    "stop_id": "202",
    "stop_name": "Fermata 1174 - VERGA",
    "stop_lat": 45.01186,
    "stop_lon": 7.63675,
    "stop_code": "1174"
  },
  "203": {
    "stop_id": "203",
    "stop_name": "Fermata 1175 - PARCO COLONNETTI",
    "stop_lat": 45.00999,
    "stop_lon": 7.64154,
    "stop_code": "1175"
  },
  "204": {
    "stop_id": "204",
    "stop_name": "Fermata 1176 - PARCO COLONNETTI",
    "stop_lat": 45.01024,
    "stop_lon": 7.64051,
    "stop_code": "1176"
  },
  "205": {
    "stop_id": "205",
    "stop_name": "Fermata 1177 - SAPRI",
    "stop_lat": 45.01161,
    "stop_lon": 7.65294,
    "stop_code": "1177"
  },
  "206": {
    "stop_id": "206",
    "stop_name": "Fermata 1178 - PISACANE",
    "stop_lat": 45.01426,
    "stop_lon": 7.65424,
    "stop_code": "1178"
  },
  "207": {
    "stop_id": "207",
    "stop_name": "Fermata 1179 - PISACANE",
    "stop_lat": 45.01388,
    "stop_lon": 7.65394,
    "stop_code": "1179"
  },
  "208": {
    "stop_id": "208",
    "stop_name": "Fermata 118 - BARDONECCHIA",
    "stop_lat": 45.07207,
    "stop_lon": 7.64076,
    "stop_code": "118"
  },
  "209": {
    "stop_id": "209",
    "stop_name": "Fermata 1180 - LA MANTA C.23",
    "stop_lat": 45.02797,
    "stop_lon": 7.61154,
    "stop_code": "1180"
  },
  "210": {
    "stop_id": "210",
    "stop_name": "Fermata 1181 - SOMALIA",
    "stop_lat": 45.01404,
    "stop_lon": 7.65773,
    "stop_code": "1181"
  },
  "211": {
    "stop_id": "211",
    "stop_name": "Fermata 1182 - MARONCELLI CAP",
    "stop_lat": 45.0181,
    "stop_lon": 7.66282,
    "stop_code": "1182"
  },
  "212": {
    "stop_id": "212",
    "stop_name": "Fermata 1183 - AUTOSTRADE NORD",
    "stop_lat": 45.11885,
    "stop_lon": 7.70993,
    "stop_code": "1183"
  },
  "213": {
    "stop_id": "213",
    "stop_name": "Fermata 1184 - CANDIOLO CAP",
    "stop_lat": 44.95781,
    "stop_lon": 7.59383,
    "stop_code": "1184"
  },
  "214": {
    "stop_id": "214",
    "stop_name": "Fermata 1185 - PAVESE",
    "stop_lat": 45.01773,
    "stop_lon": 7.62929,
    "stop_code": "1185"
  },
  "215": {
    "stop_id": "215",
    "stop_name": "Fermata 1186 - IVREA",
    "stop_lat": 45.11722,
    "stop_lon": 7.70442,
    "stop_code": "1186"
  },
  "216": {
    "stop_id": "216",
    "stop_name": "Fermata 1187 - IVREA",
    "stop_lat": 45.11705,
    "stop_lon": 7.70472,
    "stop_code": "1187"
  },
  "217": {
    "stop_id": "217",
    "stop_name": "Fermata 1188 - ANTIOCA",
    "stop_lat": 45.11634,
    "stop_lon": 7.70125,
    "stop_code": "1188"
  },
  "218": {
    "stop_id": "218",
    "stop_name": "Fermata 1189 - ANTIOCA",
    "stop_lat": 45.11622,
    "stop_lon": 7.70176,
    "stop_code": "1189"
  },
  "219": {
    "stop_id": "219",
    "stop_name": "Fermata 119 - BARDONECCHIA",
    "stop_lat": 45.07221,
    "stop_lon": 7.64107,
    "stop_code": "119"
  },
  "220": {
    "stop_id": "220",
    "stop_name": "Fermata 1190 - BELGIOIOSO",
    "stop_lat": 45.11073,
    "stop_lon": 7.69775,
    "stop_code": "1190"
  },
  "221": {
    "stop_id": "221",
    "stop_name": "Fermata 1191 - BELGIOIOSO",
    "stop_lat": 45.1114,
    "stop_lon": 7.6982,
    "stop_code": "1191"
  },
  "222": {
    "stop_id": "222",
    "stop_name": "Fermata 1192 - CENA",
    "stop_lat": 45.10887,
    "stop_lon": 7.69724,
    "stop_code": "1192"
  },
  "223": {
    "stop_id": "223",
    "stop_name": "Fermata 1193 - CENA",
    "stop_lat": 45.10913,
    "stop_lon": 7.69767,
    "stop_code": "1193"
  },
  "224": {
    "stop_id": "224",
    "stop_name": "Fermata 1194 - REISS ROMOLI",
    "stop_lat": 45.10586,
    "stop_lon": 7.69636,
    "stop_code": "1194"
  },
  "225": {
    "stop_id": "225",
    "stop_name": "Fermata 1195 - OXILIA",
    "stop_lat": 45.10588,
    "stop_lon": 7.69669,
    "stop_code": "1195"
  },
  "226": {
    "stop_id": "226",
    "stop_name": "Fermata 1197 - PORTA SUSA CAP",
    "stop_lat": 45.07282,
    "stop_lon": 7.66759,
    "stop_code": "1197"
  },
  "227": {
    "stop_id": "227",
    "stop_name": "Fermata 1198 - REBAUDENGO SUD",
    "stop_lat": 45.10281,
    "stop_lon": 7.69489,
    "stop_code": "1198"
  },
  "228": {
    "stop_id": "228",
    "stop_name": "Fermata 1199 - REBAUDENGO SUD",
    "stop_lat": 45.10291,
    "stop_lon": 7.69528,
    "stop_code": "1199"
  },
  "229": {
    "stop_id": "229",
    "stop_name": "Fermata 12 - POZZO STRADA",
    "stop_lat": 45.07486,
    "stop_lon": 7.62916,
    "stop_code": "12"
  },
  "230": {
    "stop_id": "230",
    "stop_name": "Fermata 120 - PESCHIERA",
    "stop_lat": 45.06944,
    "stop_lon": 7.63879,
    "stop_code": "120"
  },
  "231": {
    "stop_id": "231",
    "stop_name": "Fermata 1200 - VERCELLI N.168",
    "stop_lat": 45.10041,
    "stop_lon": 7.69397,
    "stop_code": "1200"
  },
  "232": {
    "stop_id": "232",
    "stop_name": "Fermata 1201 - GOTTARDO",
    "stop_lat": 45.10061,
    "stop_lon": 7.69379,
    "stop_code": "1201"
  },
  "233": {
    "stop_id": "233",
    "stop_name": "Fermata 1202 - RONDISSONE",
    "stop_lat": 45.09814,
    "stop_lon": 7.69283,
    "stop_code": "1202"
  },
  "234": {
    "stop_id": "234",
    "stop_name": "Fermata 1203 - RONDISSONE",
    "stop_lat": 45.09804,
    "stop_lon": 7.69258,
    "stop_code": "1203"
  },
  "235": {
    "stop_id": "235",
    "stop_name": "Fermata 1204 - LAURO ROSSI",
    "stop_lat": 45.09503,
    "stop_lon": 7.69133,
    "stop_code": "1204"
  },
  "236": {
    "stop_id": "236",
    "stop_name": "Fermata 1205 - LAURO ROSSI",
    "stop_lat": 45.09505,
    "stop_lon": 7.69111,
    "stop_code": "1205"
  },
  "237": {
    "stop_id": "237",
    "stop_name": "Fermata 1206 - VALPRATO",
    "stop_lat": 45.0933,
    "stop_lon": 7.69047,
    "stop_code": "1206"
  },
  "238": {
    "stop_id": "238",
    "stop_name": "Fermata 1207 - VALPRATO",
    "stop_lat": 45.09323,
    "stop_lon": 7.69024,
    "stop_code": "1207"
  },
  "239": {
    "stop_id": "239",
    "stop_name": "Fermata 1208 - CRISPI NORD",
    "stop_lat": 45.08999,
    "stop_lon": 7.68888,
    "stop_code": "1208"
  },
  "240": {
    "stop_id": "240",
    "stop_name": "Fermata 1209 - CRISPI NORD",
    "stop_lat": 45.09012,
    "stop_lon": 7.68877,
    "stop_code": "1209"
  },
  "241": {
    "stop_id": "241",
    "stop_name": "Fermata 121 - PESCHIERA",
    "stop_lat": 45.06839,
    "stop_lon": 7.63829,
    "stop_code": "121"
  },
  "242": {
    "stop_id": "242",
    "stop_name": "Fermata 1210 - CRISPI SUD",
    "stop_lat": 45.08844,
    "stop_lon": 7.68796,
    "stop_code": "1210"
  },
  "243": {
    "stop_id": "243",
    "stop_name": "Fermata 1211 - CRISPI SUD",
    "stop_lat": 45.08854,
    "stop_lon": 7.68818,
    "stop_code": "1211"
  },
  "246": {
    "stop_id": "246",
    "stop_name": "Fermata 1214 - VII CIRCOSCRIZIONE",
    "stop_lat": 45.08422,
    "stop_lon": 7.68576,
    "stop_code": "1214"
  },
  "247": {
    "stop_id": "247",
    "stop_name": "Fermata 1215 - VII CIRCOSCRIZIONE",
    "stop_lat": 45.08451,
    "stop_lon": 7.68621,
    "stop_code": "1215"
  },
  "248": {
    "stop_id": "248",
    "stop_name": "Fermata 1216 - EMILIA",
    "stop_lat": 45.08176,
    "stop_lon": 7.68687,
    "stop_code": "1216"
  },
  "249": {
    "stop_id": "249",
    "stop_name": "Fermata 1217 - EMILIA",
    "stop_lat": 45.08233,
    "stop_lon": 7.68756,
    "stop_code": "1217"
  },
  "250": {
    "stop_id": "250",
    "stop_name": "Fermata 1218 - BOLZANO CAP",
    "stop_lat": 45.07344,
    "stop_lon": 7.66799,
    "stop_code": "1218"
  },
  "251": {
    "stop_id": "251",
    "stop_name": "Fermata 1219 - LEONARDO DA VINCI NORD",
    "stop_lat": 45.05545,
    "stop_lon": 7.58623,
    "stop_code": "1219"
  },
  "252": {
    "stop_id": "252",
    "stop_name": "Fermata 122 - MONGINEVRO",
    "stop_lat": 45.06485,
    "stop_lon": 7.63661,
    "stop_code": "122"
  },
  "253": {
    "stop_id": "253",
    "stop_name": "Fermata 1220 - PASTRENGO",
    "stop_lat": 45.05803,
    "stop_lon": 7.67408,
    "stop_code": "1220"
  },
  "254": {
    "stop_id": "254",
    "stop_name": "Fermata 1222 - SAN PAOLO",
    "stop_lat": 45.05697,
    "stop_lon": 7.63605,
    "stop_code": "1222"
  },
  "255": {
    "stop_id": "255",
    "stop_name": "Fermata 1223 - ISSIGLIO",
    "stop_lat": 45.05678,
    "stop_lon": 7.63941,
    "stop_code": "1223"
  },
  "256": {
    "stop_id": "256",
    "stop_name": "Fermata 1224 - ISSIGLIO",
    "stop_lat": 45.05721,
    "stop_lon": 7.63882,
    "stop_code": "1224"
  },
  "257": {
    "stop_id": "257",
    "stop_name": "Fermata 1225 - TOLMINO",
    "stop_lat": 45.05576,
    "stop_lon": 7.64402,
    "stop_code": "1225"
  },
  "258": {
    "stop_id": "258",
    "stop_name": "Fermata 1226 - TOLMINO",
    "stop_lat": 45.05596,
    "stop_lon": 7.64416,
    "stop_code": "1226"
  },
  "8702": {
    "stop_id": "8702",
    "stop_name": "Fermata 12263 - LEINI (V.LE EUROPA/V.VOLPIANO)",
    "stop_lat": 45.18594,
    "stop_lon": 7.72027,
    "stop_code": "12263"
  },
  "259": {
    "stop_id": "259",
    "stop_name": "Fermata 1227 - MARMOLADA",
    "stop_lat": 45.05421,
    "stop_lon": 7.65064,
    "stop_code": "1227"
  },
  "260": {
    "stop_id": "260",
    "stop_name": "Fermata 1228 - MARMOLADA",
    "stop_lat": 45.05446,
    "stop_lon": 7.6508,
    "stop_code": "1228"
  },
  "261": {
    "stop_id": "261",
    "stop_name": "Fermata 1229 - ORBASSANO OVEST",
    "stop_lat": 45.05359,
    "stop_lon": 7.65327,
    "stop_code": "1229"
  },
  "262": {
    "stop_id": "262",
    "stop_name": "Fermata 123 - MONGINEVRO",
    "stop_lat": 45.06483,
    "stop_lon": 7.63675,
    "stop_code": "123"
  },
  "263": {
    "stop_id": "263",
    "stop_name": "Fermata 1230 - ORBASSANO OVEST",
    "stop_lat": 45.05358,
    "stop_lon": 7.65461,
    "stop_code": "1230"
  },
  "264": {
    "stop_id": "264",
    "stop_name": "Fermata 1231 - EXILLES",
    "stop_lat": 45.07511,
    "stop_lon": 7.63169,
    "stop_code": "1231"
  },
  "265": {
    "stop_id": "265",
    "stop_name": "Fermata 1232 - CAIO MARIO CAP",
    "stop_lat": 45.02439,
    "stop_lon": 7.63627,
    "stop_code": "1232"
  },
  "267": {
    "stop_id": "267",
    "stop_name": "Fermata 1234 - LEINI",
    "stop_lat": 45.14034,
    "stop_lon": 7.76185,
    "stop_code": "1234"
  },
  "268": {
    "stop_id": "268",
    "stop_name": "Fermata 1235 - GIORDANO BRUNO",
    "stop_lat": 45.04545,
    "stop_lon": 7.66434,
    "stop_code": "1235"
  },
  "269": {
    "stop_id": "269",
    "stop_name": "Fermata 1236 - CARDUCCI NORD",
    "stop_lat": 45.04243,
    "stop_lon": 7.67192,
    "stop_code": "1236"
  },
  "270": {
    "stop_id": "270",
    "stop_name": "Fermata 1237 - MOLINETTE",
    "stop_lat": 45.04188,
    "stop_lon": 7.67513,
    "stop_code": "1237"
  },
  "271": {
    "stop_id": "271",
    "stop_name": "Fermata 1238 - OSPEDALE MOLINETTE",
    "stop_lat": 45.0421,
    "stop_lon": 7.67447,
    "stop_code": "1238"
  },
  "272": {
    "stop_id": "272",
    "stop_name": "Fermata 1239 - ZARA",
    "stop_lat": 45.03933,
    "stop_lon": 7.68179,
    "stop_code": "1239"
  },
  "273": {
    "stop_id": "273",
    "stop_name": "Fermata 124 - LANCIA",
    "stop_lat": 45.06136,
    "stop_lon": 7.63521,
    "stop_code": "124"
  },
  "274": {
    "stop_id": "274",
    "stop_name": "Fermata 1240 - ZARA",
    "stop_lat": 45.03954,
    "stop_lon": 7.68177,
    "stop_code": "1240"
  },
  "275": {
    "stop_id": "275",
    "stop_name": "Fermata 1241 - SABAUDIA",
    "stop_lat": 45.03761,
    "stop_lon": 7.68144,
    "stop_code": "1241"
  },
  "276": {
    "stop_id": "276",
    "stop_name": "Fermata 1242 - SABAUDIA",
    "stop_lat": 45.03748,
    "stop_lon": 7.68154,
    "stop_code": "1242"
  },
  "277": {
    "stop_id": "277",
    "stop_name": "Fermata 1243 - PONTE DEL GATTO",
    "stop_lat": 45.03434,
    "stop_lon": 7.68484,
    "stop_code": "1243"
  },
  "278": {
    "stop_id": "278",
    "stop_name": "Fermata 1244 - PONTE DEL GATTO",
    "stop_lat": 45.03418,
    "stop_lon": 7.68493,
    "stop_code": "1244"
  },
  "279": {
    "stop_id": "279",
    "stop_name": "Fermata 1245 - XXV APRILE N.29",
    "stop_lat": 45.0336,
    "stop_lon": 7.6868,
    "stop_code": "1245"
  },
  "280": {
    "stop_id": "280",
    "stop_name": "Fermata 1246 - XXV APRILE N.68",
    "stop_lat": 45.03478,
    "stop_lon": 7.68618,
    "stop_code": "1246"
  },
  "281": {
    "stop_id": "281",
    "stop_name": "Fermata 1247 - XXV APRILE N.65",
    "stop_lat": 45.03473,
    "stop_lon": 7.68622,
    "stop_code": "1247"
  },
  "282": {
    "stop_id": "282",
    "stop_name": "Fermata 1248 - XXV APRILE N.102",
    "stop_lat": 45.03474,
    "stop_lon": 7.68801,
    "stop_code": "1248"
  },
  "283": {
    "stop_id": "283",
    "stop_name": "Fermata 1249 - XXV APRILE N.102",
    "stop_lat": 45.03484,
    "stop_lon": 7.68794,
    "stop_code": "1249"
  },
  "284": {
    "stop_id": "284",
    "stop_name": "Fermata 125 - LANCIA",
    "stop_lat": 45.06192,
    "stop_lon": 7.63549,
    "stop_code": "125"
  },
  "285": {
    "stop_id": "285",
    "stop_name": "Fermata 1250 - VAL PATTONERA",
    "stop_lat": 45.03349,
    "stop_lon": 7.69041,
    "stop_code": "1250"
  },
  "286": {
    "stop_id": "286",
    "stop_name": "Fermata 12506 - LEINI (STR. VOLPIANO 23)",
    "stop_lat": 45.18467,
    "stop_lon": 7.72163,
    "stop_code": "12506"
  },
  "287": {
    "stop_id": "287",
    "stop_name": "Fermata 12509 - LEINI (BALTEA-BUFFETTI)",
    "stop_lat": 45.18448,
    "stop_lon": 7.73008,
    "stop_code": "12509"
  },
  "288": {
    "stop_id": "288",
    "stop_name": "Fermata 1251 - VAL PATTONERA",
    "stop_lat": 45.03284,
    "stop_lon": 7.69129,
    "stop_code": "1251"
  },
  "289": {
    "stop_id": "289",
    "stop_name": "Fermata 12512 - LEINI (MANTOVANI)",
    "stop_lat": 45.18868,
    "stop_lon": 7.74587,
    "stop_code": "12512"
  },
  "290": {
    "stop_id": "290",
    "stop_name": "Fermata 12515 - VOLPIANO (BAR PINA)",
    "stop_lat": 45.19424,
    "stop_lon": 7.75903,
    "stop_code": "12515"
  },
  "291": {
    "stop_id": "291",
    "stop_name": "Fermata 12518 - VOLPIANO (GOMMISTA)",
    "stop_lat": 45.19699,
    "stop_lon": 7.76719,
    "stop_code": "12518"
  },
  "292": {
    "stop_id": "292",
    "stop_name": "Fermata 1252 - XXV APRILE N.167",
    "stop_lat": 45.03219,
    "stop_lon": 7.69375,
    "stop_code": "1252"
  },
  "293": {
    "stop_id": "293",
    "stop_name": "Fermata 12521 - VOLPIANO (BV. CEBROSA)",
    "stop_lat": 45.19927,
    "stop_lon": 7.77439,
    "stop_code": "12521"
  },
  "294": {
    "stop_id": "294",
    "stop_name": "Fermata 12524 - VOLPIANO (STAZIONE)",
    "stop_lat": 45.2007,
    "stop_lon": 7.77975,
    "stop_code": "12524"
  },
  "295": {
    "stop_id": "295",
    "stop_name": "Fermata 1253 - XXV APRILE N.164",
    "stop_lat": 45.03197,
    "stop_lon": 7.6931,
    "stop_code": "1253"
  },
  "296": {
    "stop_id": "296",
    "stop_name": "Fermata 1254 - CAVORETTO CAP",
    "stop_lat": 45.02978,
    "stop_lon": 7.6883,
    "stop_code": "1254"
  },
  "297": {
    "stop_id": "297",
    "stop_name": "Fermata 1255 - XXV APRILE N.56",
    "stop_lat": 45.03371,
    "stop_lon": 7.68688,
    "stop_code": "1255"
  },
  "298": {
    "stop_id": "298",
    "stop_name": "Fermata 1256 - QUERCE SUD",
    "stop_lat": 45.12961,
    "stop_lon": 7.70583,
    "stop_code": "1256"
  },
  "299": {
    "stop_id": "299",
    "stop_name": "Fermata 1257 - ULIVI N.12",
    "stop_lat": 45.13214,
    "stop_lon": 7.707,
    "stop_code": "1257"
  },
  "300": {
    "stop_id": "300",
    "stop_name": "Fermata 1258 - QUERCE",
    "stop_lat": 45.1296,
    "stop_lon": 7.71024,
    "stop_code": "1258"
  },
  "301": {
    "stop_id": "301",
    "stop_name": "Fermata 1259 - ABETI NORD",
    "stop_lat": 45.13235,
    "stop_lon": 7.71178,
    "stop_code": "1259"
  },
  "302": {
    "stop_id": "302",
    "stop_name": "Fermata 126 - PARCO RUFFINI",
    "stop_lat": 45.05689,
    "stop_lon": 7.63481,
    "stop_code": "126"
  },
  "303": {
    "stop_id": "303",
    "stop_name": "Fermata 1260 - ABETI NORD",
    "stop_lat": 45.13229,
    "stop_lon": 7.71176,
    "stop_code": "1260"
  },
  "304": {
    "stop_id": "304",
    "stop_name": "Fermata 1261 - VOLGOGRAD NORD",
    "stop_lat": 45.13157,
    "stop_lon": 7.71361,
    "stop_code": "1261"
  },
  "305": {
    "stop_id": "305",
    "stop_name": "Fermata 1262 - VOLGOGRAD NORD",
    "stop_lat": 45.13051,
    "stop_lon": 7.71562,
    "stop_code": "1262"
  },
  "306": {
    "stop_id": "306",
    "stop_name": "Fermata 1263 - VOLGOGRAD SUD",
    "stop_lat": 45.12852,
    "stop_lon": 7.71624,
    "stop_code": "1263"
  },
  "307": {
    "stop_id": "307",
    "stop_name": "Fermata 1264 - VOLGOGRAD SUD",
    "stop_lat": 45.12873,
    "stop_lon": 7.71614,
    "stop_code": "1264"
  },
  "308": {
    "stop_id": "308",
    "stop_name": "Fermata 1265 - ULIVI",
    "stop_lat": 45.12716,
    "stop_lon": 7.7145,
    "stop_code": "1265"
  },
  "309": {
    "stop_id": "309",
    "stop_name": "Fermata 1266 - ROBINIE",
    "stop_lat": 45.12745,
    "stop_lon": 7.71332,
    "stop_code": "1266"
  },
  "310": {
    "stop_id": "310",
    "stop_name": "Fermata 1267 - ABETI",
    "stop_lat": 45.12874,
    "stop_lon": 7.71054,
    "stop_code": "1267"
  },
  "311": {
    "stop_id": "311",
    "stop_name": "Fermata 1268 - FRASSINI",
    "stop_lat": 45.12723,
    "stop_lon": 7.70811,
    "stop_code": "1268"
  },
  "312": {
    "stop_id": "312",
    "stop_name": "Fermata 1269 - FRASSINI",
    "stop_lat": 45.1272,
    "stop_lon": 7.70874,
    "stop_code": "1269"
  },
  "313": {
    "stop_id": "313",
    "stop_name": "Fermata 127 - PARCO RUFFINI",
    "stop_lat": 45.05708,
    "stop_lon": 7.63504,
    "stop_code": "127"
  },
  "314": {
    "stop_id": "314",
    "stop_name": "Fermata 1270 - BETULLE",
    "stop_lat": 45.12519,
    "stop_lon": 7.7087,
    "stop_code": "1270"
  },
  "315": {
    "stop_id": "315",
    "stop_name": "Fermata 1271 - BETULLE",
    "stop_lat": 45.12512,
    "stop_lon": 7.70892,
    "stop_code": "1271"
  },
  "316": {
    "stop_id": "316",
    "stop_name": "Fermata 1272 - ABBADIA DI STURA",
    "stop_lat": 45.12303,
    "stop_lon": 7.70708,
    "stop_code": "1272"
  },
  "317": {
    "stop_id": "317",
    "stop_name": "Fermata 1273 - ABBADIA DI STURA",
    "stop_lat": 45.12305,
    "stop_lon": 7.70756,
    "stop_code": "1273"
  },
  "318": {
    "stop_id": "318",
    "stop_name": "Fermata 1274 - CUORGNÈ",
    "stop_lat": 45.12248,
    "stop_lon": 7.70422,
    "stop_code": "1274"
  },
  "319": {
    "stop_id": "319",
    "stop_name": "Fermata 1275 - CUORGNÈ",
    "stop_lat": 45.12238,
    "stop_lon": 7.70407,
    "stop_code": "1275"
  },
  "320": {
    "stop_id": "320",
    "stop_name": "Fermata 1276 - VERCELLI",
    "stop_lat": 45.11662,
    "stop_lon": 7.70545,
    "stop_code": "1276"
  },
  "321": {
    "stop_id": "321",
    "stop_name": "Fermata 1277 - VERCELLI",
    "stop_lat": 45.1166,
    "stop_lon": 7.70571,
    "stop_code": "1277"
  },
  "322": {
    "stop_id": "322",
    "stop_name": "Fermata 1278 - GIULIO CESARE",
    "stop_lat": 45.11375,
    "stop_lon": 7.70606,
    "stop_code": "1278"
  },
  "323": {
    "stop_id": "323",
    "stop_name": "Fermata 1279 - GIULIO CESARE",
    "stop_lat": 45.1136,
    "stop_lon": 7.70626,
    "stop_code": "1279"
  },
  "324": {
    "stop_id": "324",
    "stop_name": "Fermata 128 - MONFALCONE",
    "stop_lat": 45.05292,
    "stop_lon": 7.63458,
    "stop_code": "128"
  },
  "325": {
    "stop_id": "325",
    "stop_name": "Fermata 1280 - SCOTELLARO",
    "stop_lat": 45.10854,
    "stop_lon": 7.70419,
    "stop_code": "1280"
  },
  "326": {
    "stop_id": "326",
    "stop_name": "Fermata 1281 - SCOTELLARO",
    "stop_lat": 45.10858,
    "stop_lon": 7.7046,
    "stop_code": "1281"
  },
  "327": {
    "stop_id": "327",
    "stop_name": "Fermata 1282 - OXILIA",
    "stop_lat": 45.10482,
    "stop_lon": 7.70172,
    "stop_code": "1282"
  },
  "328": {
    "stop_id": "328",
    "stop_name": "Fermata 1283 - OXILIA",
    "stop_lat": 45.10497,
    "stop_lon": 7.70223,
    "stop_code": "1283"
  },
  "329": {
    "stop_id": "329",
    "stop_name": "Fermata 1284 - PORPORA",
    "stop_lat": 45.09836,
    "stop_lon": 7.69753,
    "stop_code": "1284"
  },
  "330": {
    "stop_id": "330",
    "stop_name": "Fermata 1285 - GOTTARDO",
    "stop_lat": 45.09706,
    "stop_lon": 7.69694,
    "stop_code": "1285"
  },
  "331": {
    "stop_id": "331",
    "stop_name": "Fermata 1286 - MARTORELLI",
    "stop_lat": 45.09469,
    "stop_lon": 7.69469,
    "stop_code": "1286"
  },
  "332": {
    "stop_id": "332",
    "stop_name": "Fermata 1287 - XXV APRILE NORD",
    "stop_lat": 45.00232,
    "stop_lon": 7.64963,
    "stop_code": "1287"
  },
  "333": {
    "stop_id": "333",
    "stop_name": "Fermata 1288 - XXV APRILE NORD",
    "stop_lat": 45.00229,
    "stop_lon": 7.65001,
    "stop_code": "1288"
  },
  "334": {
    "stop_id": "334",
    "stop_name": "Fermata 1289 - TORRICELLI",
    "stop_lat": 45.005,
    "stop_lon": 7.64952,
    "stop_code": "1289"
  },
  "335": {
    "stop_id": "335",
    "stop_name": "Fermata 129 - MONFALCONE",
    "stop_lat": 45.05238,
    "stop_lon": 7.6347,
    "stop_code": "129"
  },
  "336": {
    "stop_id": "336",
    "stop_name": "Fermata 1290 - TORRICELLI",
    "stop_lat": 45.00506,
    "stop_lon": 7.64979,
    "stop_code": "1290"
  },
  "337": {
    "stop_id": "337",
    "stop_name": "Fermata 1291 - GIULIO CESARE",
    "stop_lat": 45.10493,
    "stop_lon": 7.70083,
    "stop_code": "1291"
  },
  "338": {
    "stop_id": "338",
    "stop_name": "Fermata 1292 - CASTELLO DI MIRAFIORI",
    "stop_lat": 45.00913,
    "stop_lon": 7.65003,
    "stop_code": "1292"
  },
  "340": {
    "stop_id": "340",
    "stop_name": "Fermata 1294 - SOLFERINO",
    "stop_lat": 45.06933,
    "stop_lon": 7.67772,
    "stop_code": "1294"
  },
  "341": {
    "stop_id": "341",
    "stop_name": "Fermata 1295 - RE UMBERTO",
    "stop_lat": 45.06625,
    "stop_lon": 7.6745,
    "stop_code": "1295"
  },
  "342": {
    "stop_id": "342",
    "stop_name": "Fermata 1297 - PORTA SUSA CAP",
    "stop_lat": 45.07348,
    "stop_lon": 7.66786,
    "stop_code": "1297"
  },
  "343": {
    "stop_id": "343",
    "stop_name": "Fermata 1298 - XVIII DICEMBRE",
    "stop_lat": 45.07425,
    "stop_lon": 7.6681,
    "stop_code": "1298"
  },
  "344": {
    "stop_id": "344",
    "stop_name": "Fermata 13 - RIVOLI",
    "stop_lat": 45.07548,
    "stop_lon": 7.64448,
    "stop_code": "13"
  },
  "345": {
    "stop_id": "345",
    "stop_name": "Fermata 130 - SEBASTOPOLI",
    "stop_lat": 45.05,
    "stop_lon": 7.63445,
    "stop_code": "130"
  },
  "346": {
    "stop_id": "346",
    "stop_name": "Fermata 1300 - PORTA SUSA",
    "stop_lat": 45.0707,
    "stop_lon": 7.66569,
    "stop_code": "1300"
  },
  "347": {
    "stop_id": "347",
    "stop_name": "Fermata 1301 - DON BOSCO",
    "stop_lat": 45.08214,
    "stop_lon": 7.67243,
    "stop_code": "1301"
  },
  "348": {
    "stop_id": "348",
    "stop_name": "Fermata 1302 - DON BOSCO",
    "stop_lat": 45.08199,
    "stop_lon": 7.67205,
    "stop_code": "1302"
  },
  "349": {
    "stop_id": "349",
    "stop_name": "Fermata 1303 - CIRIÈ",
    "stop_lat": 45.08485,
    "stop_lon": 7.67426,
    "stop_code": "1303"
  },
  "350": {
    "stop_id": "350",
    "stop_name": "Fermata 1304 - CIRIÈ",
    "stop_lat": 45.08406,
    "stop_lon": 7.67344,
    "stop_code": "1304"
  },
  "8703": {
    "stop_id": "8703",
    "stop_name": "Fermata 13043 - SETTIMO (C.SO BRUNELLESCHI)",
    "stop_lat": 45.14134,
    "stop_lon": 7.76101,
    "stop_code": "13043"
  },
  "351": {
    "stop_id": "351",
    "stop_name": "Fermata 1305 - FORTINO",
    "stop_lat": 45.08667,
    "stop_lon": 7.67551,
    "stop_code": "1305"
  },
  "352": {
    "stop_id": "352",
    "stop_name": "Fermata 1306 - FORTINO",
    "stop_lat": 45.08578,
    "stop_lon": 7.67461,
    "stop_code": "1306"
  },
  "353": {
    "stop_id": "353",
    "stop_name": "Fermata 1307 - BALDISSERA",
    "stop_lat": 45.08944,
    "stop_lon": 7.67742,
    "stop_code": "1307"
  },
  "354": {
    "stop_id": "354",
    "stop_name": "Fermata 1308 - BALDISSERA",
    "stop_lat": 45.08902,
    "stop_lon": 7.67684,
    "stop_code": "1308"
  },
  "355": {
    "stop_id": "355",
    "stop_name": "Fermata 1309 - CIGNA",
    "stop_lat": 45.08953,
    "stop_lon": 7.68202,
    "stop_code": "1309"
  },
  "356": {
    "stop_id": "356",
    "stop_name": "Fermata 131 - SEBASTOPOLI",
    "stop_lat": 45.04821,
    "stop_lon": 7.63455,
    "stop_code": "131"
  },
  "357": {
    "stop_id": "357",
    "stop_name": "Fermata 1310 - CIGNA",
    "stop_lat": 45.08969,
    "stop_lon": 7.68305,
    "stop_code": "1310"
  },
  "358": {
    "stop_id": "358",
    "stop_name": "Fermata 1311 - CRISPI OVEST",
    "stop_lat": 45.08881,
    "stop_lon": 7.6875,
    "stop_code": "1311"
  },
  "359": {
    "stop_id": "359",
    "stop_name": "Fermata 1312 - CRISPI OVEST",
    "stop_lat": 45.08915,
    "stop_lon": 7.68741,
    "stop_code": "1312"
  },
  "360": {
    "stop_id": "360",
    "stop_name": "Fermata 1313 - REGIO PARCO",
    "stop_lat": 45.12972,
    "stop_lon": 7.75446,
    "stop_code": "1313"
  },
  "361": {
    "stop_id": "361",
    "stop_name": "Fermata 1314 - ARONA",
    "stop_lat": 45.08688,
    "stop_lon": 7.5491,
    "stop_code": "1314"
  },
  "362": {
    "stop_id": "362",
    "stop_name": "Fermata 1315 - PIRANDELLO",
    "stop_lat": 45.13321,
    "stop_lon": 7.75889,
    "stop_code": "1315"
  },
  "363": {
    "stop_id": "363",
    "stop_name": "Fermata 1316 - STURA",
    "stop_lat": 45.11118,
    "stop_lon": 7.70942,
    "stop_code": "1316"
  },
  "364": {
    "stop_id": "364",
    "stop_name": "Fermata 1317 - D'AZEGLIO",
    "stop_lat": 45.13471,
    "stop_lon": 7.76422,
    "stop_code": "1317"
  },
  "365": {
    "stop_id": "365",
    "stop_name": "Fermata 1318 - CHIOMO",
    "stop_lat": 45.13614,
    "stop_lon": 7.76832,
    "stop_code": "1318"
  },
  "366": {
    "stop_id": "366",
    "stop_name": "Fermata 1319 - ROMOLO E REMO",
    "stop_lat": 45.1118,
    "stop_lon": 7.70799,
    "stop_code": "1319"
  },
  "367": {
    "stop_id": "367",
    "stop_name": "Fermata 132 - FILADELFIA",
    "stop_lat": 45.0463,
    "stop_lon": 7.63412,
    "stop_code": "132"
  },
  "368": {
    "stop_id": "368",
    "stop_name": "Fermata 1320 - STURA C.2",
    "stop_lat": 45.10859,
    "stop_lon": 7.71418,
    "stop_code": "1320"
  },
  "369": {
    "stop_id": "369",
    "stop_name": "Fermata 1322 - PUGLIA C.3",
    "stop_lat": 45.10603,
    "stop_lon": 7.72064,
    "stop_code": "1322"
  },
  "370": {
    "stop_id": "370",
    "stop_name": "Fermata 1323 - STURA",
    "stop_lat": 45.1108,
    "stop_lon": 7.70987,
    "stop_code": "1323"
  },
  "371": {
    "stop_id": "371",
    "stop_name": "Fermata 1324 - PUGLIA N.35",
    "stop_lat": 45.10665,
    "stop_lon": 7.72308,
    "stop_code": "1324"
  },
  "372": {
    "stop_id": "372",
    "stop_name": "Fermata 1325 - STURA C.2",
    "stop_lat": 45.1085,
    "stop_lon": 7.71408,
    "stop_code": "1325"
  },
  "373": {
    "stop_id": "373",
    "stop_name": "Fermata 1326 - PUGLIA C.4",
    "stop_lat": 45.10731,
    "stop_lon": 7.72561,
    "stop_code": "1326"
  },
  "374": {
    "stop_id": "374",
    "stop_name": "Fermata 1327 - CENTRO COMMERCIALE NORD",
    "stop_lat": 45.11766,
    "stop_lon": 7.71074,
    "stop_code": "1327"
  },
  "375": {
    "stop_id": "375",
    "stop_name": "Fermata 1328 - MONDOVÌ",
    "stop_lat": 45.07681,
    "stop_lon": 7.54211,
    "stop_code": "1328"
  },
  "376": {
    "stop_id": "376",
    "stop_name": "Fermata 1329 - PISTOIA",
    "stop_lat": 45.07156,
    "stop_lon": 7.5391,
    "stop_code": "1329"
  },
  "377": {
    "stop_id": "377",
    "stop_name": "Fermata 133 - FILADELFIA",
    "stop_lat": 45.04621,
    "stop_lon": 7.63436,
    "stop_code": "133"
  },
  "378": {
    "stop_id": "378",
    "stop_name": "Fermata 1330 - TEMPIA",
    "stop_lat": 45.11826,
    "stop_lon": 7.70875,
    "stop_code": "1330"
  },
  "379": {
    "stop_id": "379",
    "stop_name": "Fermata 1331 - TEMPIA",
    "stop_lat": 45.11776,
    "stop_lon": 7.70623,
    "stop_code": "1331"
  },
  "380": {
    "stop_id": "380",
    "stop_name": "Fermata 1332 - CAFASSO",
    "stop_lat": 45.08586,
    "stop_lon": 7.73341,
    "stop_code": "1332"
  },
  "381": {
    "stop_id": "381",
    "stop_name": "Fermata 1333 - CENTRO COMMERCIALE",
    "stop_lat": 45.11945,
    "stop_lon": 7.71265,
    "stop_code": "1333"
  },
  "8680": {
    "stop_id": "8680",
    "stop_name": "Fermata 1334 - CENTRO COMMERCIALE",
    "stop_lat": 45.11972,
    "stop_lon": 7.71305,
    "stop_code": "1334"
  },
  "383": {
    "stop_id": "383",
    "stop_name": "Fermata 1336 - ROMANIA N.546",
    "stop_lat": 45.12164,
    "stop_lon": 7.71916,
    "stop_code": "1336"
  },
  "384": {
    "stop_id": "384",
    "stop_name": "Fermata 1337 - NERVI",
    "stop_lat": 45.12661,
    "stop_lon": 7.73683,
    "stop_code": "1337"
  },
  "385": {
    "stop_id": "385",
    "stop_name": "Fermata 1338 - CASCINETTE C.6 CAP",
    "stop_lat": 45.11505,
    "stop_lon": 7.7202,
    "stop_code": "1338"
  },
  "386": {
    "stop_id": "386",
    "stop_name": "Fermata 1339 - VILLAGGIO OLIMPIA",
    "stop_lat": 45.12458,
    "stop_lon": 7.72983,
    "stop_code": "1339"
  },
  "387": {
    "stop_id": "387",
    "stop_name": "Fermata 134 - PITAGORA NORD",
    "stop_lat": 45.04104,
    "stop_lon": 7.63393,
    "stop_code": "134"
  },
  "388": {
    "stop_id": "388",
    "stop_name": "Fermata 1340 - VITTORIO VENETO",
    "stop_lat": 45.13646,
    "stop_lon": 7.77162,
    "stop_code": "1340"
  },
  "389": {
    "stop_id": "389",
    "stop_name": "Fermata 1341 - CREMONA",
    "stop_lat": 45.1441,
    "stop_lon": 7.77919,
    "stop_code": "1341"
  },
  "390": {
    "stop_id": "390",
    "stop_name": "Fermata 1342 - NERVI",
    "stop_lat": 45.12676,
    "stop_lon": 7.73675,
    "stop_code": "1342"
  },
  "392": {
    "stop_id": "392",
    "stop_name": "Fermata 1345 - TORINO N.91",
    "stop_lat": 45.12938,
    "stop_lon": 7.74615,
    "stop_code": "1345"
  },
  "393": {
    "stop_id": "393",
    "stop_name": "Fermata 1346 - TORINO N.91",
    "stop_lat": 45.12949,
    "stop_lon": 7.74592,
    "stop_code": "1346"
  },
  "394": {
    "stop_id": "394",
    "stop_name": "Fermata 1347 - TORINO N.116",
    "stop_lat": 45.1308,
    "stop_lon": 7.75093,
    "stop_code": "1347"
  },
  "395": {
    "stop_id": "395",
    "stop_name": "Fermata 1348 - TORINO N.116",
    "stop_lat": 45.13103,
    "stop_lon": 7.75098,
    "stop_code": "1348"
  },
  "396": {
    "stop_id": "396",
    "stop_name": "Fermata 1349 - PIEMONTE",
    "stop_lat": 45.13194,
    "stop_lon": 7.75459,
    "stop_code": "1349"
  },
  "397": {
    "stop_id": "397",
    "stop_name": "Fermata 135 - PITAGORA NORD",
    "stop_lat": 45.04137,
    "stop_lon": 7.63407,
    "stop_code": "135"
  },
  "398": {
    "stop_id": "398",
    "stop_name": "Fermata 1350 - PIEMONTE",
    "stop_lat": 45.13189,
    "stop_lon": 7.75421,
    "stop_code": "1350"
  },
  "399": {
    "stop_id": "399",
    "stop_name": "Fermata 1351 - CUNEO",
    "stop_lat": 45.13164,
    "stop_lon": 7.76098,
    "stop_code": "1351"
  },
  "400": {
    "stop_id": "400",
    "stop_name": "Fermata 1352 - MEUCCI",
    "stop_lat": 45.1344,
    "stop_lon": 7.76131,
    "stop_code": "1352"
  },
  "401": {
    "stop_id": "401",
    "stop_name": "Fermata 1353 - ALESSANDRIA",
    "stop_lat": 45.12964,
    "stop_lon": 7.76406,
    "stop_code": "1353"
  },
  "402": {
    "stop_id": "402",
    "stop_name": "Fermata 1354 - AVOGADRO",
    "stop_lat": 45.13635,
    "stop_lon": 7.76473,
    "stop_code": "1354"
  },
  "403": {
    "stop_id": "403",
    "stop_name": "Fermata 1355 - GRIBAUDIA",
    "stop_lat": 45.12981,
    "stop_lon": 7.76595,
    "stop_code": "1355"
  },
  "404": {
    "stop_id": "404",
    "stop_name": "Fermata 1356 - ROSSELLI",
    "stop_lat": 45.13865,
    "stop_lon": 7.76773,
    "stop_code": "1356"
  },
  "405": {
    "stop_id": "405",
    "stop_name": "Fermata 1357 - ROMA",
    "stop_lat": 45.13993,
    "stop_lon": 7.77137,
    "stop_code": "1357"
  },
  "406": {
    "stop_id": "406",
    "stop_name": "Fermata 1358 - MONTELLO",
    "stop_lat": 45.13321,
    "stop_lon": 7.7687,
    "stop_code": "1358"
  },
  "407": {
    "stop_id": "407",
    "stop_name": "Fermata 1359 - GALILEI",
    "stop_lat": 45.14067,
    "stop_lon": 7.77281,
    "stop_code": "1359"
  },
  "408": {
    "stop_id": "408",
    "stop_name": "Fermata 136 - PITAGORA SUD",
    "stop_lat": 45.03875,
    "stop_lon": 7.63349,
    "stop_code": "136"
  },
  "409": {
    "stop_id": "409",
    "stop_name": "Fermata 1360 - VOLTA",
    "stop_lat": 45.1336,
    "stop_lon": 7.77099,
    "stop_code": "1360"
  },
  "410": {
    "stop_id": "410",
    "stop_name": "Fermata 1361 - GRAMSCI",
    "stop_lat": 45.14239,
    "stop_lon": 7.77556,
    "stop_code": "1361"
  },
  "411": {
    "stop_id": "411",
    "stop_name": "Fermata 1362 - PARK STURA CAP",
    "stop_lat": 45.12011,
    "stop_lon": 7.71079,
    "stop_code": "1362"
  },
  "412": {
    "stop_id": "412",
    "stop_name": "Fermata 1363 - COMO",
    "stop_lat": 45.14618,
    "stop_lon": 7.78307,
    "stop_code": "1363"
  },
  "413": {
    "stop_id": "413",
    "stop_name": "Fermata 1364 - PARK STURA CAP",
    "stop_lat": 45.12018,
    "stop_lon": 7.71075,
    "stop_code": "1364"
  },
  "414": {
    "stop_id": "414",
    "stop_name": "Fermata 1365 - MARONCELLI CAP",
    "stop_lat": 45.01808,
    "stop_lon": 7.66303,
    "stop_code": "1365"
  },
  "415": {
    "stop_id": "415",
    "stop_name": "Fermata 1366 - DI VITTORIO",
    "stop_lat": 45.13896,
    "stop_lon": 7.75702,
    "stop_code": "1366"
  },
  "416": {
    "stop_id": "416",
    "stop_name": "Fermata 1367 - DI VITTORIO",
    "stop_lat": 45.13866,
    "stop_lon": 7.75658,
    "stop_code": "1367"
  },
  "417": {
    "stop_id": "417",
    "stop_name": "Fermata 1368 - MONVISO",
    "stop_lat": 45.14088,
    "stop_lon": 7.75746,
    "stop_code": "1368"
  },
  "418": {
    "stop_id": "418",
    "stop_name": "Fermata 1369 - MONVISO",
    "stop_lat": 45.1408,
    "stop_lon": 7.75713,
    "stop_code": "1369"
  },
  "419": {
    "stop_id": "419",
    "stop_name": "Fermata 137 - PITAGORA SUD",
    "stop_lat": 45.03891,
    "stop_lon": 7.63427,
    "stop_code": "137"
  },
  "420": {
    "stop_id": "420",
    "stop_name": "Fermata 1370 - PARK CAIO MARIO",
    "stop_lat": 45.02812,
    "stop_lon": 7.64121,
    "stop_code": "1370"
  },
  "421": {
    "stop_id": "421",
    "stop_name": "Fermata 1371 - LEINI",
    "stop_lat": 45.14037,
    "stop_lon": 7.76165,
    "stop_code": "1371"
  },
  "422": {
    "stop_id": "422",
    "stop_name": "Fermata 1372 - PARK CAIO MARIO",
    "stop_lat": 45.0275,
    "stop_lon": 7.6406,
    "stop_code": "1372"
  },
  "423": {
    "stop_id": "423",
    "stop_name": "Fermata 1373 - LEVI",
    "stop_lat": 45.1416,
    "stop_lon": 7.77932,
    "stop_code": "1373"
  },
  "424": {
    "stop_id": "424",
    "stop_name": "Fermata 1375 - FALCHERA CAP",
    "stop_lat": 45.12906,
    "stop_lon": 7.70756,
    "stop_code": "1375"
  },
  "425": {
    "stop_id": "425",
    "stop_name": "Fermata 1377 - VERCELLI",
    "stop_lat": 45.09548,
    "stop_lon": 7.69185,
    "stop_code": "1377"
  },
  "426": {
    "stop_id": "426",
    "stop_name": "Fermata 1378 - SCIALOJA CAP MUFANT",
    "stop_lat": 45.10752,
    "stop_lon": 7.69004,
    "stop_code": "1378"
  },
  "427": {
    "stop_id": "427",
    "stop_name": "Fermata 1379 - ALA DI STURA NORD",
    "stop_lat": 45.10936,
    "stop_lon": 7.68624,
    "stop_code": "1379"
  },
  "428": {
    "stop_id": "428",
    "stop_name": "Fermata 138 - DANDOLO",
    "stop_lat": 45.03583,
    "stop_lon": 7.63344,
    "stop_code": "138"
  },
  "429": {
    "stop_id": "429",
    "stop_name": "Fermata 1380 - ALA DI STURA NORD",
    "stop_lat": 45.10915,
    "stop_lon": 7.6864,
    "stop_code": "1380"
  },
  "430": {
    "stop_id": "430",
    "stop_name": "Fermata 1381 - DELLA CELLA",
    "stop_lat": 45.11008,
    "stop_lon": 7.68037,
    "stop_code": "1381"
  },
  "431": {
    "stop_id": "431",
    "stop_name": "Fermata 1382 - DELLA CELLA",
    "stop_lat": 45.10989,
    "stop_lon": 7.68066,
    "stop_code": "1382"
  },
  "432": {
    "stop_id": "432",
    "stop_name": "Fermata 1383 - VERONESE",
    "stop_lat": 45.10715,
    "stop_lon": 7.68156,
    "stop_code": "1383"
  },
  "433": {
    "stop_id": "433",
    "stop_name": "Fermata 1384 - PREVIATI",
    "stop_lat": 45.10908,
    "stop_lon": 7.67966,
    "stop_code": "1384"
  },
  "434": {
    "stop_id": "434",
    "stop_name": "Fermata 1386 - MASSARI",
    "stop_lat": 45.10716,
    "stop_lon": 7.67932,
    "stop_code": "1386"
  },
  "435": {
    "stop_id": "435",
    "stop_name": "Fermata 1387 - FEA",
    "stop_lat": 45.11022,
    "stop_lon": 7.67781,
    "stop_code": "1387"
  },
  "436": {
    "stop_id": "436",
    "stop_name": "Fermata 1388 - FEA",
    "stop_lat": 45.11039,
    "stop_lon": 7.67763,
    "stop_code": "1388"
  },
  "437": {
    "stop_id": "437",
    "stop_name": "Fermata 1389 - FERMI",
    "stop_lat": 45.11077,
    "stop_lon": 7.67366,
    "stop_code": "1389"
  },
  "438": {
    "stop_id": "438",
    "stop_name": "Fermata 139 - DANDOLO",
    "stop_lat": 45.03622,
    "stop_lon": 7.63417,
    "stop_code": "139"
  },
  "439": {
    "stop_id": "439",
    "stop_name": "Fermata 1390 - FERMI",
    "stop_lat": 45.11093,
    "stop_lon": 7.67358,
    "stop_code": "1390"
  },
  "440": {
    "stop_id": "440",
    "stop_name": "Fermata 1391 - LULLI",
    "stop_lat": 45.11107,
    "stop_lon": 7.66831,
    "stop_code": "1391"
  },
  "441": {
    "stop_id": "441",
    "stop_name": "Fermata 1392 - LULLI",
    "stop_lat": 45.11123,
    "stop_lon": 7.66956,
    "stop_code": "1392"
  },
  "442": {
    "stop_id": "442",
    "stop_name": "Fermata 1393 - PIRANDELLO",
    "stop_lat": 45.13347,
    "stop_lon": 7.75923,
    "stop_code": "1393"
  },
  "443": {
    "stop_id": "443",
    "stop_name": "Fermata 1394 - GALILEO FERRARIS OVEST",
    "stop_lat": 45.03939,
    "stop_lon": 7.65232,
    "stop_code": "1394"
  },
  "444": {
    "stop_id": "444",
    "stop_name": "Fermata 1395 - REYCEND",
    "stop_lat": 45.10799,
    "stop_lon": 7.67001,
    "stop_code": "1395"
  },
  "445": {
    "stop_id": "445",
    "stop_name": "Fermata 1396 - REYCEND",
    "stop_lat": 45.10787,
    "stop_lon": 7.67012,
    "stop_code": "1396"
  },
  "446": {
    "stop_id": "446",
    "stop_name": "Fermata 1397 - CASCINA NUOVA",
    "stop_lat": 45.14882,
    "stop_lon": 7.76971,
    "stop_code": "1397"
  },
  "447": {
    "stop_id": "447",
    "stop_name": "Fermata 1398 - VANINETTI",
    "stop_lat": 45.10769,
    "stop_lon": 7.67315,
    "stop_code": "1398"
  },
  "448": {
    "stop_id": "448",
    "stop_name": "Fermata 1399 - MOGLIA",
    "stop_lat": 45.14834,
    "stop_lon": 7.77574,
    "stop_code": "1399"
  },
  "449": {
    "stop_id": "449",
    "stop_name": "Fermata 140 - TAZZOLI",
    "stop_lat": 45.03333,
    "stop_lon": 7.6339,
    "stop_code": "140"
  },
  "450": {
    "stop_id": "450",
    "stop_name": "Fermata 1400 - FEA",
    "stop_lat": 45.10695,
    "stop_lon": 7.67725,
    "stop_code": "1400"
  },
  "451": {
    "stop_id": "451",
    "stop_name": "Fermata 1401 - DEL NOBILE N.27",
    "stop_lat": 45.05338,
    "stop_lon": 7.70997,
    "stop_code": "1401"
  },
  "452": {
    "stop_id": "452",
    "stop_name": "Fermata 1402 - BREGLIO",
    "stop_lat": 45.09922,
    "stop_lon": 7.67812,
    "stop_code": "1402"
  },
  "453": {
    "stop_id": "453",
    "stop_name": "Fermata 1403 - DEL NOBILE N.55",
    "stop_lat": 45.05208,
    "stop_lon": 7.71344,
    "stop_code": "1403"
  },
  "454": {
    "stop_id": "454",
    "stop_name": "Fermata 14039 - SAN FRANCESCO",
    "stop_lat": 45.02386,
    "stop_lon": 7.52612,
    "stop_code": "14039"
  },
  "455": {
    "stop_id": "455",
    "stop_name": "Fermata 1404 - SOSPELLO",
    "stop_lat": 45.10228,
    "stop_lon": 7.67857,
    "stop_code": "1404"
  },
  "456": {
    "stop_id": "456",
    "stop_name": "Fermata 1405 - CRIMEA",
    "stop_lat": 45.05568,
    "stop_lon": 7.69683,
    "stop_code": "1405"
  },
  "458": {
    "stop_id": "458",
    "stop_name": "Fermata 1407 - SAN VINCENZO OVEST",
    "stop_lat": 45.04832,
    "stop_lon": 7.71835,
    "stop_code": "1407"
  },
  "459": {
    "stop_id": "459",
    "stop_name": "Fermata 1408 - SAORGIO",
    "stop_lat": 45.09665,
    "stop_lon": 7.67605,
    "stop_code": "1408"
  },
  "460": {
    "stop_id": "460",
    "stop_name": "Fermata 1409 - SAN VINCENZO OVEST",
    "stop_lat": 45.04815,
    "stop_lon": 7.71815,
    "stop_code": "1409"
  },
  "461": {
    "stop_id": "461",
    "stop_name": "Fermata 141 - TAZZOLI",
    "stop_lat": 45.03317,
    "stop_lon": 7.63413,
    "stop_code": "141"
  },
  "462": {
    "stop_id": "462",
    "stop_name": "Fermata 1410 - VIBÒ",
    "stop_lat": 45.09526,
    "stop_lon": 7.67475,
    "stop_code": "1410"
  },
  "463": {
    "stop_id": "463",
    "stop_name": "Fermata 1411 - XVIII DICEMBRE",
    "stop_lat": 45.07425,
    "stop_lon": 7.66863,
    "stop_code": "1411"
  },
  "464": {
    "stop_id": "464",
    "stop_name": "Fermata 1412 - BOSTON",
    "stop_lat": 45.04325,
    "stop_lon": 7.63399,
    "stop_code": "1412"
  },
  "465": {
    "stop_id": "465",
    "stop_name": "Fermata 1413 - PINEROLO",
    "stop_lat": 44.9568,
    "stop_lon": 7.59382,
    "stop_code": "1413"
  },
  "466": {
    "stop_id": "466",
    "stop_name": "Fermata 1414 - BOSTON",
    "stop_lat": 45.04323,
    "stop_lon": 7.63423,
    "stop_code": "1414"
  },
  "467": {
    "stop_id": "467",
    "stop_name": "Fermata 1415 - VITTORIO EMANUELE II CAP",
    "stop_lat": 45.0621,
    "stop_lon": 7.68123,
    "stop_code": "1415"
  },
  "468": {
    "stop_id": "468",
    "stop_name": "Fermata 1416 - SAN MAURIZIO CAP",
    "stop_lat": 45.06611,
    "stop_lon": 7.69826,
    "stop_code": "1416"
  },
  "469": {
    "stop_id": "469",
    "stop_name": "Fermata 1417 - GRAN MADRE",
    "stop_lat": 45.0618,
    "stop_lon": 7.69947,
    "stop_code": "1417"
  },
  "470": {
    "stop_id": "470",
    "stop_name": "Fermata 1418 - GRAN MADRE",
    "stop_lat": 45.0621,
    "stop_lon": 7.70037,
    "stop_code": "1418"
  },
  "471": {
    "stop_id": "471",
    "stop_name": "Fermata 1419 - BIAMONTI",
    "stop_lat": 45.06096,
    "stop_lon": 7.70232,
    "stop_code": "1419"
  },
  "472": {
    "stop_id": "472",
    "stop_name": "Fermata 142 - TAZZOLI C.2",
    "stop_lat": 45.03191,
    "stop_lon": 7.63527,
    "stop_code": "142"
  },
  "473": {
    "stop_id": "473",
    "stop_name": "Fermata 1420 - BIAMONTI",
    "stop_lat": 45.0613,
    "stop_lon": 7.70206,
    "stop_code": "1420"
  },
  "474": {
    "stop_id": "474",
    "stop_name": "Fermata 1421 - VILLA DELLA REGINA",
    "stop_lat": 45.05975,
    "stop_lon": 7.7049,
    "stop_code": "1421"
  },
  "475": {
    "stop_id": "475",
    "stop_name": "Fermata 1422 - VILLA DELLA REGINA",
    "stop_lat": 45.06021,
    "stop_lon": 7.70415,
    "stop_code": "1422"
  },
  "476": {
    "stop_id": "476",
    "stop_name": "Fermata 1423 - CAPPUCCINI",
    "stop_lat": 45.05894,
    "stop_lon": 7.69855,
    "stop_code": "1423"
  },
  "477": {
    "stop_id": "477",
    "stop_name": "Fermata 1424 - CAPPUCCINI",
    "stop_lat": 45.05881,
    "stop_lon": 7.69881,
    "stop_code": "1424"
  },
  "478": {
    "stop_id": "478",
    "stop_name": "Fermata 1425 - LANZA",
    "stop_lat": 45.0556,
    "stop_lon": 7.6962,
    "stop_code": "1425"
  },
  "479": {
    "stop_id": "479",
    "stop_name": "Fermata 1426 - LANZA",
    "stop_lat": 45.05496,
    "stop_lon": 7.69762,
    "stop_code": "1426"
  },
  "480": {
    "stop_id": "480",
    "stop_name": "Fermata 1427 - RIGHINO",
    "stop_lat": 45.0541,
    "stop_lon": 7.69886,
    "stop_code": "1427"
  },
  "482": {
    "stop_id": "482",
    "stop_name": "Fermata 1429 - LICEO VALSALICE",
    "stop_lat": 45.05378,
    "stop_lon": 7.70178,
    "stop_code": "1429"
  },
  "483": {
    "stop_id": "483",
    "stop_name": "Fermata 143 - TAZZOLI C.2",
    "stop_lat": 45.03202,
    "stop_lon": 7.63593,
    "stop_code": "143"
  },
  "484": {
    "stop_id": "484",
    "stop_name": "Fermata 1430 - LICEO VALSALICE",
    "stop_lat": 45.0539,
    "stop_lon": 7.70162,
    "stop_code": "1430"
  },
  "485": {
    "stop_id": "485",
    "stop_name": "Fermata 1431 - MOROZZO",
    "stop_lat": 45.05343,
    "stop_lon": 7.70511,
    "stop_code": "1431"
  },
  "486": {
    "stop_id": "486",
    "stop_name": "Fermata 1432 - DEL NOBILE N.27",
    "stop_lat": 45.05323,
    "stop_lon": 7.70996,
    "stop_code": "1432"
  },
  "487": {
    "stop_id": "487",
    "stop_name": "Fermata 1433 - DEL NOBILE N.55",
    "stop_lat": 45.0519,
    "stop_lon": 7.71333,
    "stop_code": "1433"
  },
  "488": {
    "stop_id": "488",
    "stop_name": "Fermata 1434 - DEL NOBILE N.87",
    "stop_lat": 45.04959,
    "stop_lon": 7.71626,
    "stop_code": "1434"
  },
  "489": {
    "stop_id": "489",
    "stop_name": "Fermata 1435 - MARONCELLI",
    "stop_lat": 45.13864,
    "stop_lon": 7.77737,
    "stop_code": "1435"
  },
  "490": {
    "stop_id": "490",
    "stop_name": "Fermata 1436 - SAN VINCENZO CAP",
    "stop_lat": 45.04728,
    "stop_lon": 7.71559,
    "stop_code": "1436"
  },
  "491": {
    "stop_id": "491",
    "stop_name": "Fermata 1437 - TADINI EST",
    "stop_lat": 45.04744,
    "stop_lon": 7.71391,
    "stop_code": "1437"
  },
  "492": {
    "stop_id": "492",
    "stop_name": "Fermata 1438 - VAL SALICE",
    "stop_lat": 45.04757,
    "stop_lon": 7.71136,
    "stop_code": "1438"
  },
  "493": {
    "stop_id": "493",
    "stop_name": "Fermata 14384 - CASELLE (STR. TORINO 9)",
    "stop_lat": 45.1693,
    "stop_lon": 7.65205,
    "stop_code": "14384"
  },
  "494": {
    "stop_id": "494",
    "stop_name": "Fermata 1439 - VAL SALICE N.57",
    "stop_lat": 45.04804,
    "stop_lon": 7.70883,
    "stop_code": "1439"
  },
  "495": {
    "stop_id": "495",
    "stop_name": "Fermata 144 - D'ARBOREA",
    "stop_lat": 45.0313,
    "stop_lon": 7.63709,
    "stop_code": "144"
  },
  "496": {
    "stop_id": "496",
    "stop_name": "Fermata 1440 - TADINI",
    "stop_lat": 45.05049,
    "stop_lon": 7.7066,
    "stop_code": "1440"
  },
  "497": {
    "stop_id": "497",
    "stop_name": "Fermata 1441 - ADUA",
    "stop_lat": 45.05287,
    "stop_lon": 7.7062,
    "stop_code": "1441"
  },
  "498": {
    "stop_id": "498",
    "stop_name": "Fermata 1442 - GABETTI CAP",
    "stop_lat": 45.06516,
    "stop_lon": 7.7105,
    "stop_code": "1442"
  },
  "499": {
    "stop_id": "499",
    "stop_name": "Fermata 1443 - MONCALVO",
    "stop_lat": 45.06492,
    "stop_lon": 7.71079,
    "stop_code": "1443"
  },
  "500": {
    "stop_id": "500",
    "stop_name": "Fermata 1444 - GOZZANO",
    "stop_lat": 45.06487,
    "stop_lon": 7.71131,
    "stop_code": "1444"
  },
  "501": {
    "stop_id": "501",
    "stop_name": "Fermata 1445 - PONTE TROMBETTA",
    "stop_lat": 45.06399,
    "stop_lon": 7.71292,
    "stop_code": "1445"
  },
  "502": {
    "stop_id": "502",
    "stop_name": "Fermata 1446 - PONTE TROMBETTA",
    "stop_lat": 45.06406,
    "stop_lon": 7.71248,
    "stop_code": "1446"
  },
  "503": {
    "stop_id": "503",
    "stop_name": "Fermata 1447 - SAN MARTINO SUPERIORE",
    "stop_lat": 45.06233,
    "stop_lon": 7.71546,
    "stop_code": "1447"
  },
  "504": {
    "stop_id": "504",
    "stop_name": "Fermata 1448 - SAN MARTINO SUPERIORE",
    "stop_lat": 45.06235,
    "stop_lon": 7.7157,
    "stop_code": "1448"
  },
  "505": {
    "stop_id": "505",
    "stop_name": "Fermata 1449 - SAN MARTINO N.66",
    "stop_lat": 45.06057,
    "stop_lon": 7.71623,
    "stop_code": "1449"
  },
  "506": {
    "stop_id": "506",
    "stop_name": "Fermata 145 - D'ARBOREA",
    "stop_lat": 45.03127,
    "stop_lon": 7.63818,
    "stop_code": "145"
  },
  "507": {
    "stop_id": "507",
    "stop_name": "Fermata 1450 - SAN MARTINO N.66",
    "stop_lat": 45.06071,
    "stop_lon": 7.71629,
    "stop_code": "1450"
  },
  "508": {
    "stop_id": "508",
    "stop_name": "Fermata 1451 - SAN MARTINO N.82",
    "stop_lat": 45.05867,
    "stop_lon": 7.71903,
    "stop_code": "1451"
  },
  "509": {
    "stop_id": "509",
    "stop_name": "Fermata 1452 - SAN MARTINO N.82",
    "stop_lat": 45.05882,
    "stop_lon": 7.7191,
    "stop_code": "1452"
  },
  "510": {
    "stop_id": "510",
    "stop_name": "Fermata 1453 - SANT'ANNA",
    "stop_lat": 45.05715,
    "stop_lon": 7.72049,
    "stop_code": "1453"
  },
  "511": {
    "stop_id": "511",
    "stop_name": "Fermata 1454 - SANT'ANNA",
    "stop_lat": 45.05733,
    "stop_lon": 7.72047,
    "stop_code": "1454"
  },
  "512": {
    "stop_id": "512",
    "stop_name": "Fermata 14549 - CASELLE (OSPEDALE)",
    "stop_lat": 45.17446,
    "stop_lon": 7.64898,
    "stop_code": "14549"
  },
  "513": {
    "stop_id": "513",
    "stop_name": "Fermata 1455 - SANT'ANNA N.9",
    "stop_lat": 45.05802,
    "stop_lon": 7.72181,
    "stop_code": "1455"
  },
  "514": {
    "stop_id": "514",
    "stop_name": "Fermata 1456 - SANT'ANNA N.9",
    "stop_lat": 45.05822,
    "stop_lon": 7.72153,
    "stop_code": "1456"
  },
  "515": {
    "stop_id": "515",
    "stop_name": "Fermata 1457 - SANT'ANNA N.52",
    "stop_lat": 45.05583,
    "stop_lon": 7.72447,
    "stop_code": "1457"
  },
  "516": {
    "stop_id": "516",
    "stop_name": "Fermata 1458 - SANT'ANNA N.45",
    "stop_lat": 45.056,
    "stop_lon": 7.72453,
    "stop_code": "1458"
  },
  "517": {
    "stop_id": "517",
    "stop_name": "Fermata 1459 - SANT'ANNA N.79",
    "stop_lat": 45.0554,
    "stop_lon": 7.72637,
    "stop_code": "1459"
  },
  "518": {
    "stop_id": "518",
    "stop_name": "Fermata 146 - AGNELLI C.3",
    "stop_lat": 45.02904,
    "stop_lon": 7.6387,
    "stop_code": "146"
  },
  "519": {
    "stop_id": "519",
    "stop_name": "Fermata 1460 - SANT'ANNA N.79",
    "stop_lat": 45.05552,
    "stop_lon": 7.72629,
    "stop_code": "1460"
  },
  "8704": {
    "stop_id": "8704",
    "stop_name": "Fermata 14609 - LEINI (STR. SETTIMO 129)",
    "stop_lat": 45.1536,
    "stop_lon": 7.72815,
    "stop_code": "14609"
  },
  "520": {
    "stop_id": "520",
    "stop_name": "Fermata 1461 - SANT'ANNA N.74",
    "stop_lat": 45.05475,
    "stop_lon": 7.72684,
    "stop_code": "1461"
  },
  "8705": {
    "stop_id": "8705",
    "stop_name": "Fermata 14612 - LEINI (FORNACINO)",
    "stop_lat": 45.14964,
    "stop_lon": 7.73634,
    "stop_code": "14612"
  },
  "8092": {
    "stop_id": "8092",
    "stop_name": "Fermata 14613 - SETTIMO (V. LEINI/V. LUCCHINI)",
    "stop_lat": 45.14413,
    "stop_lon": 7.74716,
    "stop_code": "14613"
  },
  "521": {
    "stop_id": "521",
    "stop_name": "Fermata 1462 - SANT'ANNA N.74",
    "stop_lat": 45.05487,
    "stop_lon": 7.72709,
    "stop_code": "1462"
  },
  "522": {
    "stop_id": "522",
    "stop_name": "Fermata 1463 - SANT'ANNA N.80",
    "stop_lat": 45.05328,
    "stop_lon": 7.72893,
    "stop_code": "1463"
  },
  "523": {
    "stop_id": "523",
    "stop_name": "Fermata 1464 - SANT'ANNA N.80",
    "stop_lat": 45.05357,
    "stop_lon": 7.72924,
    "stop_code": "1464"
  },
  "524": {
    "stop_id": "524",
    "stop_name": "Fermata 1465 - LAVAZZA N.47",
    "stop_lat": 45.05202,
    "stop_lon": 7.72938,
    "stop_code": "1465"
  },
  "525": {
    "stop_id": "525",
    "stop_name": "Fermata 1466 - LAVAZZA N.54",
    "stop_lat": 45.05178,
    "stop_lon": 7.72941,
    "stop_code": "1466"
  },
  "526": {
    "stop_id": "526",
    "stop_name": "Fermata 1467 - LAVAZZA N.37",
    "stop_lat": 45.05288,
    "stop_lon": 7.72797,
    "stop_code": "1467"
  },
  "527": {
    "stop_id": "527",
    "stop_name": "Fermata 1468 - LAVAZZA N.36",
    "stop_lat": 45.05277,
    "stop_lon": 7.72786,
    "stop_code": "1468"
  },
  "528": {
    "stop_id": "528",
    "stop_name": "Fermata 1469 - LAVAZZA",
    "stop_lat": 45.05254,
    "stop_lon": 7.72539,
    "stop_code": "1469"
  },
  "529": {
    "stop_id": "529",
    "stop_name": "Fermata 147 - AGNELLI C.3",
    "stop_lat": 45.02972,
    "stop_lon": 7.63968,
    "stop_code": "147"
  },
  "530": {
    "stop_id": "530",
    "stop_name": "Fermata 1470 - LAVAZZA",
    "stop_lat": 45.05257,
    "stop_lon": 7.72581,
    "stop_code": "1470"
  },
  "531": {
    "stop_id": "531",
    "stop_name": "Fermata 1471 - PININ PACOT",
    "stop_lat": 45.05429,
    "stop_lon": 7.72304,
    "stop_code": "1471"
  },
  "532": {
    "stop_id": "532",
    "stop_name": "Fermata 1472 - PININ PACOT",
    "stop_lat": 45.05417,
    "stop_lon": 7.72297,
    "stop_code": "1472"
  },
  "533": {
    "stop_id": "533",
    "stop_name": "Fermata 1473 - SAN MARTINO N.171",
    "stop_lat": 45.05285,
    "stop_lon": 7.72083,
    "stop_code": "1473"
  },
  "534": {
    "stop_id": "534",
    "stop_name": "Fermata 1474 - SAN MARTINO N.155",
    "stop_lat": 45.05302,
    "stop_lon": 7.72104,
    "stop_code": "1474"
  },
  "535": {
    "stop_id": "535",
    "stop_name": "Fermata 1475 - SANTA MARGHERITA",
    "stop_lat": 45.05196,
    "stop_lon": 7.71842,
    "stop_code": "1475"
  },
  "536": {
    "stop_id": "536",
    "stop_name": "Fermata 1476 - SANTA MARGHERITA",
    "stop_lat": 45.05204,
    "stop_lon": 7.71863,
    "stop_code": "1476"
  },
  "537": {
    "stop_id": "537",
    "stop_name": "Fermata 1477 - SAN VINCENZO N.127",
    "stop_lat": 45.05018,
    "stop_lon": 7.72102,
    "stop_code": "1477"
  },
  "538": {
    "stop_id": "538",
    "stop_name": "Fermata 1478 - SAN VINCENZO",
    "stop_lat": 45.0499,
    "stop_lon": 7.7214,
    "stop_code": "1478"
  },
  "539": {
    "stop_id": "539",
    "stop_name": "Fermata 1479 - MAINERO N.58",
    "stop_lat": 45.04687,
    "stop_lon": 7.72234,
    "stop_code": "1479"
  },
  "540": {
    "stop_id": "540",
    "stop_name": "Fermata 148 - TAZZOLI",
    "stop_lat": 45.03095,
    "stop_lon": 7.64006,
    "stop_code": "148"
  },
  "541": {
    "stop_id": "541",
    "stop_name": "Fermata 1480 - MAINERO N.61",
    "stop_lat": 45.04703,
    "stop_lon": 7.72261,
    "stop_code": "1480"
  },
  "542": {
    "stop_id": "542",
    "stop_name": "Fermata 1481 - MAINERO N.94",
    "stop_lat": 45.043,
    "stop_lon": 7.72107,
    "stop_code": "1481"
  },
  "543": {
    "stop_id": "543",
    "stop_name": "Fermata 1482 - MAINERO N.94",
    "stop_lat": 45.04305,
    "stop_lon": 7.7213,
    "stop_code": "1482"
  },
  "544": {
    "stop_id": "544",
    "stop_name": "Fermata 1483 - MAINERO N.126",
    "stop_lat": 45.04193,
    "stop_lon": 7.72247,
    "stop_code": "1483"
  },
  "545": {
    "stop_id": "545",
    "stop_name": "Fermata 1484 - MAINERO N.126",
    "stop_lat": 45.04213,
    "stop_lon": 7.72233,
    "stop_code": "1484"
  },
  "546": {
    "stop_id": "546",
    "stop_name": "Fermata 1485 - MAINERO CAP",
    "stop_lat": 45.03831,
    "stop_lon": 7.72613,
    "stop_code": "1485"
  },
  "547": {
    "stop_id": "547",
    "stop_name": "Fermata 1486 - MONCALIERI CAP",
    "stop_lat": 45.04436,
    "stop_lon": 7.61743,
    "stop_code": "1486"
  },
  "548": {
    "stop_id": "548",
    "stop_name": "Fermata 1487 - NITTI",
    "stop_lat": 45.04296,
    "stop_lon": 7.61996,
    "stop_code": "1487"
  },
  "549": {
    "stop_id": "549",
    "stop_name": "Fermata 1488 - NITTI",
    "stop_lat": 45.04274,
    "stop_lon": 7.62022,
    "stop_code": "1488"
  },
  "550": {
    "stop_id": "550",
    "stop_name": "Fermata 1489 - RUBINO",
    "stop_lat": 45.04115,
    "stop_lon": 7.62331,
    "stop_code": "1489"
  },
  "551": {
    "stop_id": "551",
    "stop_name": "Fermata 149 - CAIO MARIO CAP",
    "stop_lat": 45.02406,
    "stop_lon": 7.63622,
    "stop_code": "149"
  },
  "552": {
    "stop_id": "552",
    "stop_name": "Fermata 1490 - RUBINO",
    "stop_lat": 45.04155,
    "stop_lon": 7.62265,
    "stop_code": "1490"
  },
  "553": {
    "stop_id": "553",
    "stop_name": "Fermata 1491 - SALVEMINI",
    "stop_lat": 45.04341,
    "stop_lon": 7.62466,
    "stop_code": "1491"
  },
  "554": {
    "stop_id": "554",
    "stop_name": "Fermata 1492 - SALVEMINI",
    "stop_lat": 45.04408,
    "stop_lon": 7.62497,
    "stop_code": "1492"
  },
  "555": {
    "stop_id": "555",
    "stop_name": "Fermata 1493 - GIARDINO GREEN",
    "stop_lat": 45.04516,
    "stop_lon": 7.6237,
    "stop_code": "1493"
  },
  "556": {
    "stop_id": "556",
    "stop_name": "Fermata 1494 - GIARDINO GREEN",
    "stop_lat": 45.04535,
    "stop_lon": 7.624,
    "stop_code": "1494"
  },
  "557": {
    "stop_id": "557",
    "stop_name": "Fermata 1495 - SALVEMINI OVEST",
    "stop_lat": 45.04643,
    "stop_lon": 7.6209,
    "stop_code": "1495"
  },
  "558": {
    "stop_id": "558",
    "stop_name": "Fermata 1496 - SALVEMINI OVEST",
    "stop_lat": 45.04698,
    "stop_lon": 7.62122,
    "stop_code": "1496"
  },
  "559": {
    "stop_id": "559",
    "stop_name": "Fermata 1497 - ALLAMANO",
    "stop_lat": 45.0495,
    "stop_lon": 7.62291,
    "stop_code": "1497"
  },
  "560": {
    "stop_id": "560",
    "stop_name": "Fermata 1498 - ALLAMANO",
    "stop_lat": 45.05003,
    "stop_lon": 7.62286,
    "stop_code": "1498"
  },
  "561": {
    "stop_id": "561",
    "stop_name": "Fermata 1499 - SANTA RITA NORD",
    "stop_lat": 45.04788,
    "stop_lon": 7.64739,
    "stop_code": "1499"
  },
  "562": {
    "stop_id": "562",
    "stop_name": "Fermata 150 - UNIONE SOVIETICA",
    "stop_lat": 45.02616,
    "stop_lon": 7.63856,
    "stop_code": "150"
  },
  "563": {
    "stop_id": "563",
    "stop_name": "Fermata 1500 - SANTA RITA NORD",
    "stop_lat": 45.04765,
    "stop_lon": 7.64731,
    "stop_code": "1500"
  },
  "564": {
    "stop_id": "564",
    "stop_name": "Fermata 1501 - CAPRERA",
    "stop_lat": 45.04925,
    "stop_lon": 7.64826,
    "stop_code": "1501"
  },
  "565": {
    "stop_id": "565",
    "stop_name": "Fermata 1502 - CAPRERA",
    "stop_lat": 45.04995,
    "stop_lon": 7.6488,
    "stop_code": "1502"
  },
  "566": {
    "stop_id": "566",
    "stop_name": "Fermata 1503 - TIRRENO",
    "stop_lat": 45.05153,
    "stop_lon": 7.64971,
    "stop_code": "1503"
  },
  "567": {
    "stop_id": "567",
    "stop_name": "Fermata 1504 - TIRRENO",
    "stop_lat": 45.0519,
    "stop_lon": 7.65006,
    "stop_code": "1504"
  },
  "568": {
    "stop_id": "568",
    "stop_name": "Fermata 1505 - MARMOLADA SUD",
    "stop_lat": 45.05364,
    "stop_lon": 7.65003,
    "stop_code": "1505"
  },
  "569": {
    "stop_id": "569",
    "stop_name": "Fermata 1506 - MARMOLADA SUD",
    "stop_lat": 45.05358,
    "stop_lon": 7.64975,
    "stop_code": "1506"
  },
  "570": {
    "stop_id": "570",
    "stop_name": "Fermata 1507 - MARMOLADA NORD",
    "stop_lat": 45.05541,
    "stop_lon": 7.64889,
    "stop_code": "1507"
  },
  "571": {
    "stop_id": "571",
    "stop_name": "Fermata 1508 - MARMOLADA NORD",
    "stop_lat": 45.05559,
    "stop_lon": 7.64844,
    "stop_code": "1508"
  },
  "572": {
    "stop_id": "572",
    "stop_name": "Fermata 1509 - RIVALTA",
    "stop_lat": 45.05733,
    "stop_lon": 7.64764,
    "stop_code": "1509"
  },
  "573": {
    "stop_id": "573",
    "stop_name": "Fermata 151 - UNIONE SOVIETICA",
    "stop_lat": 45.02587,
    "stop_lon": 7.63933,
    "stop_code": "151"
  },
  "574": {
    "stop_id": "574",
    "stop_name": "Fermata 1510 - RIVALTA",
    "stop_lat": 45.05711,
    "stop_lon": 7.64745,
    "stop_code": "1510"
  },
  "575": {
    "stop_id": "575",
    "stop_name": "Fermata 1511 - ROBILANT SUD",
    "stop_lat": 45.06031,
    "stop_lon": 7.64569,
    "stop_code": "1511"
  },
  "576": {
    "stop_id": "576",
    "stop_name": "Fermata 1512 - ROBILANT SUD",
    "stop_lat": 45.06007,
    "stop_lon": 7.64551,
    "stop_code": "1512"
  },
  "577": {
    "stop_id": "577",
    "stop_name": "Fermata 1513 - ROBILANT NORD",
    "stop_lat": 45.06161,
    "stop_lon": 7.64499,
    "stop_code": "1513"
  },
  "578": {
    "stop_id": "578",
    "stop_name": "Fermata 1514 - MONGINEVRO",
    "stop_lat": 45.06431,
    "stop_lon": 7.64523,
    "stop_code": "1514"
  },
  "579": {
    "stop_id": "579",
    "stop_name": "Fermata 1515 - MONGINEVRO",
    "stop_lat": 45.0648,
    "stop_lon": 7.64486,
    "stop_code": "1515"
  },
  "580": {
    "stop_id": "580",
    "stop_name": "Fermata 1516 - TINIVELLA",
    "stop_lat": 45.14828,
    "stop_lon": 7.76563,
    "stop_code": "1516"
  },
  "581": {
    "stop_id": "581",
    "stop_name": "Fermata 1517 - TINIVELLA",
    "stop_lat": 45.14806,
    "stop_lon": 7.76594,
    "stop_code": "1517"
  },
  "582": {
    "stop_id": "582",
    "stop_name": "Fermata 1518 - PRAGELATO",
    "stop_lat": 45.07029,
    "stop_lon": 7.64382,
    "stop_code": "1518"
  },
  "583": {
    "stop_id": "583",
    "stop_name": "Fermata 1519 - CAPRIOLO",
    "stop_lat": 45.07031,
    "stop_lon": 7.6423,
    "stop_code": "1519"
  },
  "584": {
    "stop_id": "584",
    "stop_name": "Fermata 152 - GUALA",
    "stop_lat": 45.02441,
    "stop_lon": 7.64336,
    "stop_code": "152"
  },
  "585": {
    "stop_id": "585",
    "stop_name": "Fermata 1520 - RACCONIGI NORD",
    "stop_lat": 45.07051,
    "stop_lon": 7.64599,
    "stop_code": "1520"
  },
  "586": {
    "stop_id": "586",
    "stop_name": "Fermata 1521 - FREJUS",
    "stop_lat": 45.07098,
    "stop_lon": 7.64658,
    "stop_code": "1521"
  },
  "587": {
    "stop_id": "587",
    "stop_name": "Fermata 1522 - VITTORIO EMANUELE II OVEST",
    "stop_lat": 45.07322,
    "stop_lon": 7.64782,
    "stop_code": "1522"
  },
  "588": {
    "stop_id": "588",
    "stop_name": "Fermata 1523 - VITTORIO EMANUELE II OVEST",
    "stop_lat": 45.07306,
    "stop_lon": 7.64741,
    "stop_code": "1523"
  },
  "589": {
    "stop_id": "589",
    "stop_name": "Fermata 1524 - ROBILANT SUD",
    "stop_lat": 45.06011,
    "stop_lon": 7.64479,
    "stop_code": "1524"
  },
  "590": {
    "stop_id": "590",
    "stop_name": "Fermata 1525 - MOGLIA",
    "stop_lat": 45.14847,
    "stop_lon": 7.7758,
    "stop_code": "1525"
  },
  "591": {
    "stop_id": "591",
    "stop_name": "Fermata 1526 - CASCINA NUOVA",
    "stop_lat": 45.14896,
    "stop_lon": 7.76974,
    "stop_code": "1526"
  },
  "592": {
    "stop_id": "592",
    "stop_name": "Fermata 1527 - MICCA",
    "stop_lat": 45.14608,
    "stop_lon": 7.76364,
    "stop_code": "1527"
  },
  "593": {
    "stop_id": "593",
    "stop_name": "Fermata 1528 - MONTE NERO",
    "stop_lat": 45.14279,
    "stop_lon": 7.76254,
    "stop_code": "1528"
  },
  "594": {
    "stop_id": "594",
    "stop_name": "Fermata 1529 - ARIOSTO",
    "stop_lat": 45.13629,
    "stop_lon": 7.77507,
    "stop_code": "1529"
  },
  "595": {
    "stop_id": "595",
    "stop_name": "Fermata 153 - GUALA",
    "stop_lat": 45.0242,
    "stop_lon": 7.64403,
    "stop_code": "153"
  },
  "596": {
    "stop_id": "596",
    "stop_name": "Fermata 1530 - BERNINI EST",
    "stop_lat": 45.07561,
    "stop_lon": 7.65718,
    "stop_code": "1530"
  },
  "597": {
    "stop_id": "597",
    "stop_name": "Fermata 1531 - DUCHESSA JOLANDA",
    "stop_lat": 45.07497,
    "stop_lon": 7.65836,
    "stop_code": "1531"
  },
  "598": {
    "stop_id": "598",
    "stop_name": "Fermata 1532 - CAVALLI",
    "stop_lat": 45.07307,
    "stop_lon": 7.65698,
    "stop_code": "1532"
  },
  "599": {
    "stop_id": "599",
    "stop_name": "Fermata 1533 - PALMIERI",
    "stop_lat": 45.07443,
    "stop_lon": 7.66057,
    "stop_code": "1533"
  },
  "600": {
    "stop_id": "600",
    "stop_name": "Fermata 1534 - VOLTA",
    "stop_lat": 45.13373,
    "stop_lon": 7.77085,
    "stop_code": "1534"
  },
  "601": {
    "stop_id": "601",
    "stop_name": "Fermata 1535 - DROVETTI",
    "stop_lat": 45.07309,
    "stop_lon": 7.66459,
    "stop_code": "1535"
  },
  "602": {
    "stop_id": "602",
    "stop_name": "Fermata 1536 - MONTELLO",
    "stop_lat": 45.13324,
    "stop_lon": 7.7684,
    "stop_code": "1536"
  },
  "603": {
    "stop_id": "603",
    "stop_name": "Fermata 1537 - GRIBAUDIA",
    "stop_lat": 45.12991,
    "stop_lon": 7.76581,
    "stop_code": "1537"
  },
  "604": {
    "stop_id": "604",
    "stop_name": "Fermata 1538 - ALESSANDRIA",
    "stop_lat": 45.13026,
    "stop_lon": 7.76335,
    "stop_code": "1538"
  },
  "605": {
    "stop_id": "605",
    "stop_name": "Fermata 1539 - CUNEO",
    "stop_lat": 45.13171,
    "stop_lon": 7.76122,
    "stop_code": "1539"
  },
  "606": {
    "stop_id": "606",
    "stop_name": "Fermata 154 - PIO VII",
    "stop_lat": 45.02201,
    "stop_lon": 7.65014,
    "stop_code": "154"
  },
  "607": {
    "stop_id": "607",
    "stop_name": "Fermata 1540 - FARINI CAP",
    "stop_lat": 45.07103,
    "stop_lon": 7.70347,
    "stop_code": "1540"
  },
  "608": {
    "stop_id": "608",
    "stop_name": "Fermata 1541 - PARK STURA CAP",
    "stop_lat": 45.12027,
    "stop_lon": 7.71072,
    "stop_code": "1541"
  },
  "609": {
    "stop_id": "609",
    "stop_name": "Fermata 1542 - RODI",
    "stop_lat": 45.05559,
    "stop_lon": 7.62296,
    "stop_code": "1542"
  },
  "610": {
    "stop_id": "610",
    "stop_name": "Fermata 1543 - DI VITTORIO",
    "stop_lat": 45.05798,
    "stop_lon": 7.62181,
    "stop_code": "1543"
  },
  "611": {
    "stop_id": "611",
    "stop_name": "Fermata 15436 - VOLPIANO (ULTRAGAS)",
    "stop_lat": 45.19126,
    "stop_lon": 7.75227,
    "stop_code": "15436"
  },
  "612": {
    "stop_id": "612",
    "stop_name": "Fermata 1544 - DI VITTORIO",
    "stop_lat": 45.05859,
    "stop_lon": 7.62119,
    "stop_code": "1544"
  },
  "613": {
    "stop_id": "613",
    "stop_name": "Fermata 1545 - ALFIERI",
    "stop_lat": 45.05485,
    "stop_lon": 7.62391,
    "stop_code": "1545"
  },
  "614": {
    "stop_id": "614",
    "stop_name": "Fermata 1546 - TOLMINO",
    "stop_lat": 45.05595,
    "stop_lon": 7.64498,
    "stop_code": "1546"
  },
  "615": {
    "stop_id": "615",
    "stop_name": "Fermata 1547 - BALDISSERA NORD",
    "stop_lat": 45.09113,
    "stop_lon": 7.67807,
    "stop_code": "1547"
  },
  "616": {
    "stop_id": "616",
    "stop_name": "Fermata 1548 - RENIER",
    "stop_lat": 45.05837,
    "stop_lon": 7.645,
    "stop_code": "1548"
  },
  "617": {
    "stop_id": "617",
    "stop_name": "Fermata 1549 - RENIER",
    "stop_lat": 45.05799,
    "stop_lon": 7.6448,
    "stop_code": "1549"
  },
  "618": {
    "stop_id": "618",
    "stop_name": "Fermata 155 - BENEDETTO CROCE",
    "stop_lat": 45.02317,
    "stop_lon": 7.64696,
    "stop_code": "155"
  },
  "619": {
    "stop_id": "619",
    "stop_name": "Fermata 1550 - ROBILANT SUD",
    "stop_lat": 45.06007,
    "stop_lon": 7.64503,
    "stop_code": "1550"
  },
  "620": {
    "stop_id": "620",
    "stop_name": "Fermata 1551 - PESCHIERA",
    "stop_lat": 45.06596,
    "stop_lon": 7.64513,
    "stop_code": "1551"
  },
  "621": {
    "stop_id": "621",
    "stop_name": "Fermata 1552 - MONTE NERO",
    "stop_lat": 45.14294,
    "stop_lon": 7.76276,
    "stop_code": "1552"
  },
  "622": {
    "stop_id": "622",
    "stop_name": "Fermata 1554 - COLLEGNO",
    "stop_lat": 45.09506,
    "stop_lon": 7.5566,
    "stop_code": "1554"
  },
  "623": {
    "stop_id": "623",
    "stop_name": "Fermata 1555 - PALAGIUSTIZIA",
    "stop_lat": 45.07006,
    "stop_lon": 7.66012,
    "stop_code": "1555"
  },
  "625": {
    "stop_id": "625",
    "stop_name": "Fermata 1558 - PASSO BUOLE",
    "stop_lat": 45.02427,
    "stop_lon": 7.65626,
    "stop_code": "1558"
  },
  "626": {
    "stop_id": "626",
    "stop_name": "Fermata 1559 - MICCA",
    "stop_lat": 45.14599,
    "stop_lon": 7.76383,
    "stop_code": "1559"
  },
  "627": {
    "stop_id": "627",
    "stop_name": "Fermata 156 - PIO VII",
    "stop_lat": 45.02182,
    "stop_lon": 7.65079,
    "stop_code": "156"
  },
  "628": {
    "stop_id": "628",
    "stop_name": "Fermata 1560 - EANDI",
    "stop_lat": 45.07402,
    "stop_lon": 7.66637,
    "stop_code": "1560"
  },
  "629": {
    "stop_id": "629",
    "stop_name": "Fermata 1561 - GIOBERTI",
    "stop_lat": 45.14297,
    "stop_lon": 7.78282,
    "stop_code": "1561"
  },
  "630": {
    "stop_id": "630",
    "stop_name": "Fermata 1562 - GIOBERTI",
    "stop_lat": 45.14315,
    "stop_lon": 7.7825,
    "stop_code": "1562"
  },
  "8662": {
    "stop_id": "8662",
    "stop_name": "Fermata 15620 - POSTIGLIONE",
    "stop_lat": 44.97013,
    "stop_lon": 7.72289,
    "stop_code": "15620"
  },
  "8663": {
    "stop_id": "8663",
    "stop_name": "Fermata 15621 - VAJONT",
    "stop_lat": 44.96828,
    "stop_lon": 7.72523,
    "stop_code": "15621"
  },
  "8664": {
    "stop_id": "8664",
    "stop_name": "Fermata 15622 - MONCALIERI (BUGATTI)",
    "stop_lat": 44.97042,
    "stop_lon": 7.726,
    "stop_code": "15622"
  },
  "631": {
    "stop_id": "631",
    "stop_name": "Fermata 1563 - SAN GABRIELE DA GORIZIA",
    "stop_lat": 45.03948,
    "stop_lon": 7.65281,
    "stop_code": "1563"
  },
  "632": {
    "stop_id": "632",
    "stop_name": "Fermata 1564 - STATUTO",
    "stop_lat": 45.07643,
    "stop_lon": 7.66954,
    "stop_code": "1564"
  },
  "633": {
    "stop_id": "633",
    "stop_name": "Fermata 1565 - TONCO",
    "stop_lat": 45.06011,
    "stop_lon": 7.70547,
    "stop_code": "1565"
  },
  "634": {
    "stop_id": "634",
    "stop_name": "Fermata 1566 - BRICCA",
    "stop_lat": 45.06261,
    "stop_lon": 7.7081,
    "stop_code": "1566"
  },
  "635": {
    "stop_id": "635",
    "stop_name": "Fermata 1567 - BRICCA",
    "stop_lat": 45.06243,
    "stop_lon": 7.70736,
    "stop_code": "1567"
  },
  "636": {
    "stop_id": "636",
    "stop_name": "Fermata 1568 - FIGLIE DEI MILITARI",
    "stop_lat": 45.06394,
    "stop_lon": 7.71082,
    "stop_code": "1568"
  },